osm_id,latitude,longitude,name,type
292004245,46.0769744,11.141749,Biblioteca Argentario,library
428313995,46.0517426,11.1276494,Biblioteca Clarina,library
1559090545,46.0663953,11.1388567,BUM - Biblioteca Universitaria Mesiano,library
1607714595,46.0060602,11.1278038,Biblioteca Mattarello,library
1721783679,46.0627341,11.1244168,Biblioteca del Polo Umanistico,library
3292585477,46.0648792,11.1534216,Biblioteca Povo,library
4715779117,46.1266441,11.1161334,Biblioteca di Meano,library
4924544965,46.0626921,11.1152767,Gino Tomasi,library
7095449512,46.1079123,11.1123636,Biblioteca Gardolo,library
7095449513,46.0378105,11.106449,Biblioteca Ravina,library
7095449514,46.0716169,11.0599502,Biblioteca Sopramonte,library
7095449515,46.0171551,11.1059033,Punto di prestito Romagnano,library
7095449516,46.0402507,11.1332977,Punto di prestito Madonna Bianca,library
7095449517,46.0857594,11.0628437,Piccola biblioteca di Cadine,library
7095449518,46.1081273,11.1442395,Punto di prestito Montevaccino,library
7095449519,46.0898203,11.1314618,Punto di prestito Martignano,library
9196004472,46.0685816,11.1254832,CISMed - Centro Interdipartimentale di Scienze Mediche,university
9630961821,46.0663033,11.1166087,Sala studio Cavazzani,library
9859813787,46.0643383,11.1164915,Polo universitario delle professioni sanitarie,university
10033381157,46.0674665,11.1189775,Facoltà di Giurisprudenza Entrata,library
1155540,46.0656582,11.1355634,Biblioteca San Bernardino,library
10981990849,46.0704115,11.1310588,College La Collina,student_accommodation
11160363209,46.0730511,11.1289144,Biblioteca dei Cappuccini,library
12301854152,46.0825531,11.1228301,Polo universitario delle professioni sanitarie,university
24581559,46.0466378,11.1347276,Studentato San Bartolameo,student_accommodation
819927358,46.0669804,11.1395393,Laboratori Ingegneria,university
819927358,46.0663683,11.1398154,Mensa e bar Mesiano,restaurant
819927358,46.0645438,11.1400773,Laboratorio Idraulica,university
819927358,46.0644425,11.1397296,Laboratorio di metrologia,university
36843504,46.0480768,11.1459807,Biblioteca Villazzano,library
7704585208,46.0661841,11.1169523,ex Biblioteca universitaria centrale,university
67197001,46.0620987,11.1231034,Seminario Maggiore,university
70882135,46.0685568,11.1181241,Collegio Bernardo Clesio,student_accommodation
72455760,46.0679071,11.1163113,Dipartimento di Lettere e Filosofia e Studi Internazionali,university
1366801083,46.0687239,11.1257251,Il Centro Interdipartimentale di Scienze Mediche (CISMed),university
4264239318,46.0709242,11.1208778,Biblioteca dei Ragazzi,library
91501515,46.0722295,11.1271173,Biblioteca della Fondazione - Museo Storico del Trentino,library
126733787,46.1054395,11.1115782,Villa Foyer,student_accommodation
208909969,46.0656454,11.1177066,Dipartimento di Economia e Management,university
215037366,46.0677605,11.1191643,Facoltà di Giurisprudenza,university
72455760,46.0678439,11.1164666,Palazzo Paolo Prodi,university
5775655090,46.0596466,11.1155914,"Central Library, BUC - Biblioteca Universitaria Centrale",library
275318443,46.0664097,11.1506218,"Povo 0, Dipartimenti di Matematica e Fisica",university
275318445,46.0674763,11.149296,"Povo 1, Dipartimento di Ingegneria e Scienza dell'Informazione",university
275318462,46.0669407,11.1501332,BUP - Biblioteca Universitaria Povo,library
275318465,46.0668484,11.1503081,Mensa Povo 1,fast_food
385162547,46.0618785,11.1218162,Vigilianum - Polo Culturale Diocesano,library
498631940,46.0733553,11.118293,Studentato Mayer,student_accommodation
668474307,46.0087621,11.1341461,LNiF/CIMeC e BIOtech,university
668474307,46.0087621,11.1341461,Centro Sportivo Universitario di Mattarello,university
11726705877,46.0676553,11.1493131,"Povo 2, Dipartimento di Ingegneria Industriale",university
930522309,46.0666582,11.119793,Dipartimento di Sociologia e Ricerca Sociale,university
7699915777,46.0670398,11.1388996,"Dipartimento di Ingegneria Civile, Ambientale e Meccanica",university
1016831603,8.0439311,126.0636266,Agusan Del Sur State University - Trento Annex,university
1181361605,46.0697009,11.1210695,Biblioteca Comunale di Trento,library
1219539037,46.1441,11.1186,MASO FRANCH GOURMET E RELAIS,hotel
1178258840,46.083546,11.174873,MASO CANTANGHEL,ristorante
27217071,46.42895910089672,11.69501436993644,Ski Stadium «Aloch»,impiantosci
26821697,46.32887671502965,11.60168067650075,Stadio del Salto «Dal Ben»,stadiosalto
1223552917,46.39306803994184,11.79966541195878,Passo San Pellegrino,impiantosci
25163770,46.28583945210038,11.46457011172124,Palaghiaccio Comunale di Cavalese,stadioghiaccio
331336536,46.12657227184545,11.25197968539958,Ice Rink Piné Stadium,stadioghiaccio
26771965,46.07192313475388,11.2355336310515,Palaghiaccio Comunale di Pergine,stadioghiaccio
672492528,46.35474,11.492738,Centro Fondo Lavazé,snowpark
3102593635,46.04093342207616,11.12254142761231,Palaghiaccio di Trento,stadioghiaccio
93670030,46.02759,11.04461,Monte Bondone,snowpark
95209176,46.28242112351411,11.52382518929917,Stadio del Fondo di Lago di Tesero,impiantosci
231698166,46.46179584266813,11.78428310124411,Palazzo del Ghiaccio «Gianmario Scola»,stadioghiaccio
24772737,46.126493,11.246791,Bar da Gigi,bar
236435028,46.145526,11.220262,POLIAMBULATORIO LASES,servizisanitari
102478154,46.131138,11.245898,Giovannini Roberto,abbigliamento
1246628870,46.161014,11.186613,ZENDRON LUIGINO,alimentari
103129519,46.144245,11.193966,Alimentari di Betti Valerio,alimentari
42674330,46.169333,11.217748,CANTINA PELZ,prodottitipici
832929590,46.13239,11.247135,Anesi Alessandro,bar
85405253,46.162608,11.131155,Bel Bait,bar
1301468594,46.1826,11.3259,MONTECROCE,ristorante
42178555,46.175583,11.220356,Gasperat Angela,parrucchiera
10043028882,46.220313,11.29388,POLIAMBULATORIO GRAUNO,servizisanitari
1189004621,46.154355,11.309748,ALIMENTARI MATTIVI AOFELIA,alimentari
269349968,46.150383,11.222351,BAR ESSO,bar
253573331,46.230069,11.297689,Alimentari da Sandro,alimentari
23125342,46.169251,11.210193,AUTOFFICINA TECNOAUTO SNC DI GOTTARDI DAVIDE E FABIAO (CEMBRA),automoto
1229695692,46.127995,11.24419,POLIAMBULATORIO BASELGA DI PINE',servizisanitari
1183728573,46.1305,11.2461,GIOVANNINI EGIDIO,appartamentovacanze
293233413,46.081964,11.202111,CARROZZERIA SB (CIVEZZANO),automoto
122919173,46.161666,11.303384,POLIAMBULATORIO BEDOLLO,servizisanitari
167520968,46.145899,11.219779,CAFFE' BREAK,bar
1245762615,46.160548,11.187638,BEAUTY (LISIGNANO),negozio
528355965,46.14318,11.194926,INTERNET POINT DI ALBIANO,wifi
1732692637,46.1341,11.2475,IORIATTI NORMA,appartamentovacanze
253576180,46.230278,11.300556,CONDOMINIO PERLA,appartamentovacanze
2967453837,46.134553,11.248063,Bianco,bar
293235722,46.126967,11.259296,CARROZZERIA TOMASI G. (BASELGA DI PINE'),automoto
26135722,46.134296,11.247468,NORMA (BASELGA DI PINE'),parrucchiera
1183435147,46.141796,11.195371,OFFICINA SEVEGNANI (ALBIANO),automoto
26135722,46.13412,11.247143,Gioielleria Andreatta Sas ,negozio
605427556,46.15039,11.271371,AUTOFFICINA VALENTINI DI VALENTINI DAVIDE (BASELGA DI PINE'),automoto
26122960,46.1335,11.2487,ALBERGO VILLA ANITA,hotel
702075256,46.160113,11.234057,Famiglia Cooperativa di Lona ,alimentari
520622911,46.1716,11.2199,EUROPA,ristorante
24794532,46.135029,11.249345,Svaldi Francesca,profumeria
293233391,46.132386,11.244372,Colibri Artigianato,souvenir
29236099,46.105933,11.18465,FAMIGLIA COOPERATIVA PERGINESE S.C.A.R.L.,alimentari
269348447,46.15052,11.22256,DISTRIBUTORE DI CARBURANTI,stazioneservizio
1229695692,46.127995,11.24419,INTERNET POINT DI BASELGA DI PINE',wifi
253215463,46.186722,11.26064,GIACOMOZZI,ristorante
293233405,46.129722,11.243889,Itinerario Riserva Naturalistica del Laghestel,attrazionenaturale
82604931,46.0959,11.2345,WELLNESS HOTEL BELVEDERE WELLNESS & FAMILY,wellness
138707747,46.082876,11.200151,Sottobosco,prodottitipici
256197490,46.160524,11.1877,DALLAPORTA LUIGI ,alimentari
123631727,46.207829,11.268043,Famiglia Coperativa,alimentari
12135177861,46.194559,11.208489,HAPPY RANCH SALOON,ristorante
24756549,46.131895,11.243409,Alpino,bar
522612906,46.126448,11.246784,DA GIGI,ristorante
126273701,46.187355,11.2584,WELLNESS HOTEL ALLE PIRAMIDI,wellness
24756549,46.131895,11.243409,ALPINO,ristorante
2468231578,46.157293,11.152477,Famiglia coop. Giovo ,alimentari
74772709,46.168389,11.247134,TAVOLA CALDA DO SPAGHI,ristorante
445468059,46.09015,11.181437,EXTREME PIZZA,ristorante
9201653,46.083337,11.199099,SWEET COFFEE,bar
659197619,46.157014,11.152638,Cafè Centro,bar
1923459909,46.12722,11.249635,TALPA,pizzeria
35204599,46.163889,11.14,AGRITUR AI SERCI,agriturismo
832929590,46.134057,11.248508,DR. LUCA SIGHEL (BASELGA DI PINE'),dentista
303978483,46.158166,11.288884,APICOLTURA GOCCE D'ORO,prodottitipici
832929594,46.133698,11.246164,Supermercato Fratelli Ravelli,alimentari
253215463,46.186722,11.26064,DISTILLERIA GIACOMOZZI RENZO,prodottitipici
42733332,46.123772,11.242033,HOTEL 2 PINI,ristorante
459250557,46.169799,11.302225,BAITA ALPINA,ristorante
42690882,46.214783,11.192523,SAUCH,ristorante
86967971,46.088535,11.182719,QUASI BAR,bar
97120739,46.177994,11.22557,Dalvit Tarcisio,alimentari
605440218,46.136944,11.248333,GATTI CARLA,appartamentovacanze
42733331,46.126021,11.243774,Due camini,bar
7001520479,46.12559,11.248925,ANDREATTA ANDREA (BASELGA DI PINE'),negozio
216511654,46.2173,11.3267,TIROL,ristorante
522825641,46.174803,11.221179,AZIENDA AGRICOLA ZANOTELLI ELIO & F.LLI,prodottitipici
103129729,46.144855,11.193287,POLIAMBULATORIO ALBIANO,servizisanitari
522825121,46.175185,11.220214,Tabacchi Fadanelli Danilo,tabacchino
1183435146,46.144968,11.192928,BAR SPORT,bar
30490250,46.204703,11.23147,AGRITURISMO DELLA GENS PAOLAZZI,agriturismo
239008783,46.157627,11.154821,INTERNET POINT DI GIOVO,wifi
74772709,46.170105,11.246834,SALONE SONIA (SEGONZANO),parrucchiera
1732692055,46.132765,11.247304,Negozio Jolly ,negoziosport
832929593,46.13385,11.246569,Pinetana,gelateria-pasticceria
537513269,46.133657,11.24747,LA VECCHIA SEGHERIA,ristorante
122919173,46.160929,11.302517,PIZZERIA BAR CENTRALE (BEDOLLO),pizzeria
832929590,46.134401,11.248873,Dallapiccola Sara,abbigliamento
253791977,46.222707,11.313039,POSTA DI SOVER,posta
24790156,46.147949,11.187904,BAR STELLA,bar
110448041,46.146529,11.202175,Albiangomme,negozio
126273701,46.187355,11.2584,ALLE PIRAMIDI,ristorante
525228148,46.17533,11.220294,Famiglia Cooperativa,alimentari
76788043,46.224065,11.312398,Linard,bar
97554072,46.175317,11.220597,Bar Vico,bar
122919173,46.16151,11.303131,TORREFAZIONE TRIVENETA,prodottitipici
110448041,46.145589,11.201257,Nord Salotto ,casalinghi
1183435147,46.142534,11.195582,FARMACIA DR.SSA CREMONESI (ALBIANO),farmacia
26135723,46.134609,11.249133,Serraia,bar
102219048,46.088699,11.180879,Calzature Molinari,abbigliamento
9201653,46.083337,11.199099,LIDL,alimentari
12135177861,46.194559,11.208489,Happy Ranch Saloon,bar
30076424,46.088502,11.186546,DR.SSA DANILA MATTIVI (CIVEZZANO),dentista
12053617038,46.15909,11.328551,MALGA STRAMAIOLO,agriturismo
927947054,46.133806,11.257112,Bar piccolo paradiso,bar
216511654,46.2173,11.3267,HOTEL TIROL NATURAL IDYLL,hotel
258446708,46.130073,11.244584,Al Bivio,bar
2468231580,46.157135,11.152254,Tabacchino Zangrando,tabacchino
832929590,46.132492,11.246988,Malga Stramaiolo,agriturismo
253309861,46.1811,11.2363,SAVOI MARIA GRAZIA,appartamentovacanze
168154138,46.117138,11.205357,TABACCHI CARESIA SERENA,tabacchino
605427557,46.141688,11.258524,Ioriatti Liliana,alimentari
24761328,46.131337,11.241507,Scuola elementare ,servizimunicipali
1224940106,46.22117,11.315841,MUNICIPIO DI SOVER,servizimunicipali
605430567,46.1325,11.2377,BORTOLOTTI ARMANDO,appartamentovacanze
82604931,46.096076,11.234635,NADIA (BASELGA DI PINE'),parrucchiera
293233391,46.133159,11.245612,Negozio Alles Sport,negoziosport
1219539037,46.143058,11.118222,Gourmet Relais & Maso Franch,bar
126261128,46.144035,11.218902,AL LAGO,ristorante
24756549,46.132016,11.243678,Sport,bar
1188951255,46.098565,11.23632,Tondini Mattia,alimentari
2967453836,46.135142,11.249391,SERGIO,ristorante
1189004621,46.154355,11.309748,BAR GENZIANELLA ,bar
1183435146,46.144957,11.192857,BAR SPORT (ALBIANO),bar
102219048,46.088693,11.180866,Negozio Molinari Sport ,negoziosport
170257060,46.1549,11.286,HOTEL PINETA,hotel
262073964,46.180313,11.32333,BAR AL LAGO DELLE BUSE,bar
42326463,46.176205,11.212296,PALACURLING,stadioghiaccio
269084179,46.131443,11.246644,Lions' Cafè,bar
24766352,46.1436,11.2608,MARZADRI MARIA,appartamentovacanze
528256120,46.1702,11.2148,AGRITUR MASO VAL FRAJA,agriturismo
42178642,46.175676,11.222145,Il forno Holler,alimentari
605427556,46.1494,11.2688,R.T.A. MONTECHIARA,hotel
2468231575,46.156111,11.153293,Bar al Portec,bar
253309861,46.181283,11.23687,MARYALEX (FAVER),parrucchiera
293233391,46.132577,11.244665,Renata Mode,abbigliamento
654054278,46.183138,11.251027,AZIENDA AGRICOLA BARONE A PRATO PAOLO,prodottitipici
26239297,46.157032,11.281,ANDREATTA ROMANO,appartamentovacanze
1245762615,46.160546,11.187662,CASSA RURALE DI GIOVO,banca
216511654,46.2173,11.3267,HOTEL TIROL,centrowellness
26122960,46.133233,11.248433,Villa Anita,bar
9201653,46.083337,11.199099,BASSANO AMERICAN GAME,negozio
253064560,46.188558,11.257594,Menegatti,alimentari
24790155,46.144266,11.194708,Famiglia Cooperativa ,alimentari
259536186,46.140278,11.256389,Giro Dos Alt - Cime Alte,attrazionenaturale
832929590,46.133308,11.24791,Edizioni del Baldo srl,cartoleria-libreria
234348171,46.221526,11.294146,UNICREDITBANCA SPA,banca
42178684,46.17572,11.221987,Macelleria Paolazzi,alimentari
7624789903,46.160981,11.301997,PANETTIERE,alimentari
24766347,46.149296,11.267879,Dalsant Giuseppina & C. Sas,alimentari
603895805,46.168062,11.298557,"AZIENDA AGRICOLA ""LE MANDRE""",prodottitipici
8900599275,46.168085,11.156958,Famiglia coop. Giovo ,alimentari
74772728,46.186375,11.257622,DR. COSIMO DI GERONIMO (SEGONZANO),dentista
258446708,46.130161,11.244665,Casagrande Paolo,casalinghi
126261128,46.145035,11.219358,POSTA DI LONA-LASES,posta
1262852373,46.181111,11.263333,Sentiero di Segonzano,attrazionenaturale
893391491,46.088678,11.181939,INTERNET POINT DI CIVEZZANO,wifi
1187919807,46.149305,11.275168,Bar Spiaggia,bar
259536186,46.14042,11.25674,AL LIDO,pizzeria
123631727,46.2086,11.2691,FASSAN ERMANNO,appartamentovacanze
10857941804,46.134444,11.249167,Giro dei Laghi,attrazionenaturale
2503395889,46.187452,11.258517,POSTA DI SEGONZANO,posta
86967971,46.088567,11.181979,SALONE TEX (CIVEZZANO),parrucchiera
10861840320,46.137857,11.256437,Lago di Serraia,attrazionenaturale
1183435146,46.145197,11.192308,CASSA RURALE LAVIS - VALLE DI CEMBRA,banca
42178042,46.17486,11.220766,"DR. CRISTIANO TOMASI, DR. PAOLO GHENSI e DR. GIACOMO VAROTTO (CEMBRA)",dentista
1091022266,46.175217,11.131275,"AZIENDA AGRICOLA BIOLOGICA ""MOLINO DEI LESSI""",prodottitipici
74772709,46.17018,11.246887,Salone Sonia,parrucchiera
23125354,46.155924,11.153461,Merceria Clementini,serviziperl'abbigliamento-accessori
605434744,46.1485925,11.2607198,GIOVANNINI WALTER,appartamentovacanze
167521032,46.141667,11.218056,Itinerario Lago di Lases - Lago di Santa Colomba,attrazionenaturale
1154520450,46.1776,11.1674,HOTEL FIOR DI BOSCO,hotel
24764904,46.1293,11.2446,ALBERGO RISTORANTE LA SCARDOLA,hotel
1205979358,46.160278,11.294722,MATTIVI FERNANDO,appartamentovacanze
122919173,46.161611,11.303319,FARMACIA DR. MORELLI (BEDOLLO),farmacia
24794532,46.134713,11.249222,Bar Serraia,bar
459250557,46.169799,11.302225,"Bar, tavola calda BAITA ALPINA",bar
24811047,46.1341,11.2438,VILLA COSTALTA,appartamentovacanze
24811049,46.12611,11.243452,CENTRO DELLA SALUTE E BELLEZZA,centrowellness
173057146,46.1583,11.283,ANDREATTA CLAUDIA,appartamentovacanze
261569633,46.1272,11.2466,OSTERIA DEL MAESTRO - Ristorante Albergo Lagorai,ristorante
2468231577,46.156399,11.153215,CASSA RURALE DI GIOVO,banca
1127560594,46.117023,11.205888,INTERNET POINT DI FORNACE,wifi
54175290,46.12445,11.1798,LAGO SANTA COLOMBA,ristorante
832929590,46.133813,11.248421,BRESSANINI IDA (BASELGA DI PINE'),negozio
261569633,46.1272,11.2466,Hotel Lagorai,bar
11641300380,46.175546,11.221989,SALONE TOTALOOK TONDINA (CEMBRA),parrucchiera
293233391,46.132854,11.245256,ARTE E MAGIA DI BATTISTI CRISTINA (BASELGA DI PINE'),negozio
832929590,46.134456,11.248913,SALONE UNISEX (BASELGA DI PINE'),parrucchiera
762510333,46.221571,11.316088,Nones Carla,alimentari
255804057,46.11178,11.172595,B&B LOREDANA,bedbreakfast
832929590,46.134497,11.248991,Broseghini Caterina,tabacchino
227692436,46.098624,11.235974,CA' DEI BOCI - Ristorante Romantik Hotel Posta 1899,ristorante
9201653,46.083337,11.199099,IL DINOSAURO,abbigliamento
253348828,46.181775,11.237608,CASSA RURALE LAVIS - VALLE DI CEMBRA,banca
42178684,46.1763,11.223,NARDON LAURA,appartamentovacanze
274085436,46.094128,11.2339,HOTEL ALLA COMPARSA,hotel
74772742,46.150465,11.222871,AUTOFFICINA LASES DI TURRI RITA & C (LONA-LASES),automoto
201329839,46.2225,11.2677,MASO ZEPP,appartamentovacanze
1809408737,46.116742,11.205867,FARMACIA DR.SSA CREMONESI (FORNACE),farmacia
234344074,46.222212,11.293956,L'OST,hotel
116828666,46.143374,11.245858,La capannina,bar
1154520450,46.1776,11.1674,Fior di bosco ,bar
3950221148,46.0627126564057,11.2426722049713,Casagrande Marisa,alimentari
293868274,46.0612311961566,11.2389278411865,Salone Grisenti Lorenza,parrucchiera
1111843220,46.0679383947018,11.2229740619659,Robusti Vanessa,negozio
3951262743,46.0620500986954,11.2429404258728,Magnabosco Gabriella,gioielleria
3952821560,46.0624223231069,11.2427043914795,Bar Commercio,bar
591077806,46.0804201004719,11.5544682741165,Ristorante Carraro,ristorante
391905243,46.0615587586297,11.2432193756104,Macelleria Eccher,alimentari
65608560,46.016217555207,11.2897825241089,Prime Rose Al Belvedere,ristorante
26773480,46.05919133156925,11.249828338623,Castel Pergine,monumento
386840544,46.0463399410206,11.2349796295166,Castel Pergine Est - Area di Servizio,bar
28922411,46.0697918496914,11.2216114997864,Macelleria Eccher,alimentari
5731536318,46.0544859550582,11.4591693878174,Museo Spazi Livio Rossi,museo
11662909745,46.0531904170843,11.2393355369568,Salone New Energy ,parrucchiera
799244269,46.0115681285875,11.3019490242004,Panificio Grisenti,alimentari
85541111,46.054739102607,11.2361598014832,Formica,abbigliamento
1111843220,46.0679383947018,11.2229740619659,Fabrizio srl,negozio
7687845079,46.0626605454132,11.2347972393036,Casa dell'attrezzatura,ferramenta
354933149,46.0114787127063,11.3021421432495,Bar Al Conte,bar
423844092,46.119,11.6881,"Passo Brocon ""Da Sciopo""",ristorante
1111843220,46.0679383947018,11.2229740619659,Video srl,negozio
4215202558,46.0538456354903,11.455682516098,Bar Cusso,bar
1111843220,46.0679383947018,11.2229740619659,Cisalfa Sport,abbigliamento
4217197513,46.0522075748998,11.4502215385437,Fanny Pub,birreria
6591719451,46.0151893502917,11.2646341323853,Villa Ester,ristorante
373734504,46.0641568557691,11.244410276413,Casagrande Massimo,parrucchiera
4046069845,46.0397418315973,11.2353336811066,Folgheraiter Eleonora,tabacchino
65608571,46.0075740782513,11.2923574447632,La Cantina - LevicoLand,pizzeria
106625950,46.0783511756929,11.207857131958,Casapiccola Drink Line,alimentari
4033489971,46.0260664914701,11.2307095527649,Ristorante Mezzolago,ristorante
106406115,46.0611418605994,11.2409019470215,La Bufalina,alimentari
1214884757,46.0676257576055,11.2396681308746,PanCaffè snc,bar
2647941985,46.0696727540531,11.2201952934265,Cimenti Linda,gelateria
388084231,46.0504056521342,11.2568235397339,Baitella Lino,ristorante
3952806162,46.0605165076515,11.2396144866943,City Caffè di Dall'Eva Evelyn,bar
5763526116,46.009407204326,11.2999749183655,La Stua,pizzeria
106278934,46.0696280931225,11.2230491638184,Salone Prestige di Manuardi Crocefissa,parrucchiera
42028965,46.060069822638,11.239732503891,Orthosanitari,negozio
5806113513,46.0529521539184,11.4583218097687,Bar Bistrò 29,bar
2393235151,45.9926385440303,11.26296043396,Bar Blue Coffeee,bar
9780395570,46.0644248473714,11.2447428703308,Daniela,bar
475825804,46.0509864435783,11.2227702140808,La Tana dei Golosi di Garbari sas,ristorante
92289735,46.115847694466,11.6611289978027,Scuola di Sci Lagorai,scuolasci
3086518752,46.0786786365809,11.5522313117981,Az. Agricola Busarello,prodottitipici
6575340093,45.9905365135366,11.6682314872742,Bar Da Toni,bar
85540804,46.0556623367752,11.2364816665649,Poli Supermercati,alimentari
85540804,46.0559229242714,11.2365567684174,For Edil,negozio
7687845073,46.0583426065843,11.2374472618103,Bar Cuba,bar
1300059484,46.0602633865876,11.2373292446136,Sapori e Saperi di F&H Dynamics ,ristorante
391905243,46.0614768681936,11.2432837486267,Pradart,negozio
293233409,46.1033516879063,11.211279630661,Bar Commercio,bar
3951262747,46.0609929676828,11.2419104576111,White Cafè,bar
511337508,46.0161132454348,11.3154244422913,Scaranò,ristorante
6959505773,46.0533542224146,11.4575386047363,Ritrovo dei Sapori,bar
1111843220,46.0679383947018,11.2229740619659,Emmedi,negozio
86253430,46.0570248235189,11.2367069721222,Lampadari Pergine,negozio
3752066674,46.0030431645636,11.3692188262939,Arte Sella,museo
42028965,46.060051210684,11.2398451566696,Bar bianco,bar
4613996420,46.060799406291,11.2374687194824,Autopergine di De Mori Giuseppe,automoto
36851176,46.0688762953666,11.2568879127502,All'Oton,birreria
24695116,46.0636878673345,11.2418675422668,Salone Miriam di Ruzza Miriam,parrucchiera
4941869749,46.0698886147082,11.2212574481964,Enovalsugana Sas di Baldi Massimo,prodottitipici
25152033,46.0787679437585,11.2278985977173,Weber Mara,tabacchino
293868272,46.0612981977296,11.2385094165802,Bottega del Caffè Dersut,bar
7687845066,46.0591764417697,11.2372541427612,Bar Bazar,bar
4456452995,46.0694643360678,11.2387132644653,Parrucchieri Michele Hayr Stilist,parrucchiera
77499834,46.0575236490563,11.2380480766296,Laner Tessuti e Arredo Casa,negozio
458708907,46.0571513916192,11.3129138946533,Scuola di Sci Panarotta 2002,scuolasci
5731565816,46.053339331041,11.4580965042114,Bar Da Carlo (Bar Bianco),bar
977861430,46.0275861408122,11.2296581268311,Albergo Valcanover,ristorante
6593002854,46.0718759817634,11.4721512794495,Bar Baltik,bar
1111843220,46.0679383947018,11.2229740619659,Darene srl,negozio
42028965,46.0596901375352,11.239367723465,La Dote di Sandra,abbigliamento
413711732,46.0682733610544,11.6113257408142,Farmacia Montelisciani,farmacia
5774806150,46.009220913799,11.3093841075897,Bar Adriano,bar
120294547,46.0128646426197,11.2670803070068,Veg Point,ristorante
228591581,46.0607472934926,11.2389922142029,Il confetto,negozio
468998808,46.0501524847217,11.2524461746216,Albergo Miramonti,ristorante
105642334,46.014250537803,11.2667798995972,Bar - One Rosso,pizzeria
26769365,46.0660699895347,11.232168674469,Colorificio Dueffe,negozio
189146144,46.0660551015902,11.2413954734802,Pane e Fantasia,alimentari
196838025,46.060151715161,11.2405371665955,Confezione Lucia di Hu Chunlan,abbigliamento
3950175833,46.0637623102092,11.2416958808899,Motor Sport,automoto
427063916,45.9786085879012,11.5910911560059,Rifugio Barricata,ristorante
331244264,46.0653255873891,11.2491416931152,Vicentini Andrea,automoto
26769365,46.065772229881,11.2325978279114,CONAD,alimentari
228760226,46.0505098972021,11.2215042114258,Bar Dal Pozzo Debora,bar
413711735,46.0688018593881,11.6070771217346,Bar Centrale,bar
373734504,46.0632933184229,11.243509054184,Dalsasso Eugenio,abbigliamento
1049118724,46.0722332536453,11.2359237670898,Latte Trento,prodottitipici
497095123,46.0384012615909,11.2369644641876,La Darsena,pizzeria
1171497715,46.1050179857986,11.2118482589722,Famiglia Cooperativa,alimentari
1111843220,46.0679383947018,11.2229740619659,Conte of Florence,abbigliamento
5763437488,46.0118810830332,11.2992453575134,La Ciotola,souvenir
10950812636,46.0656084613869,11.2364816665649,Salone Pazza Idea,parrucchiera
1224361145,46.0619458754105,11.2425971031189,Bancarella 3,abbigliamento
3952821558,46.062764767349,11.2429511547089,Andreatta Sergio,negozio
499995766,45.9921018629831,11.2617373466492,Farmacia Maistri e Girardi,farmacia
196838025,46.0600549330753,11.2405157089233,Puff Store,negozio
4663505349,46.0517757144695,11.4579892158508,Bar Cantinota,bar
26789155,46.0595486855548,11.2379837036133,Sanità - Laboratorio ortopedico,negozio
225334851,45.9571765971136,11.3289642333984,Vezzena,ristorante
382061065,46.0522224665786,11.4530754089355,Bar Bocciodromo,bar
3802220163,46.0031922136799,11.3697338104248,Dall'Ersilia,bar
28922411,46.0695834321557,11.2204957008362,Comunello & co,abbigliamento
3952792061,46.059520767358,11.2392818927765,Bar 2000,bar
11327715662,46.0116873495375,11.3011765480042,Cose Così,prodottitipici
662440702,46.0071567727698,11.293044090271,LD Lombardini Discaunt,alimentari
8925982357,46.078500021792,11.5810060501099,Betty's Hill,pizzeria
106406115,46.0610376356,11.2408912181854,Crazy Bike,serviziobiciclette
1111843220,46.0679383947018,11.2229740619659,Emar di Lanza Marcello,negozio
5776482338,46.0532276456111,11.457302570343,Ufficio APT Valsugana - Pergine,info
42028965,46.060218718044,11.2400543689728,Le Primizie,alimentari
9580758624,46.0618416519288,11.6358518600464,Alimentari Moranduzzo,alimentari
1620985279,46.051686363614,11.4565515518188,Bar Vulcano,bar
317062421,46.0090756067523,11.3021904230118,Famiglia Cooperativa,alimentari
83076307,46.0782618678408,11.277186870575,Museo degli attrezzi agricoli e artigianali,museo
2393254562,45.9918335205079,11.2626600265503,Bar Centrale,bar
729689601,46.0584393916714,11.214154958725,Rosa Nera,birreria
3578043,46.0563621975529,11.4637613296509,Cream Cafè - Miriam,bar
3951298229,46.0589382044302,11.2403118610382,Vecchia Pergine,pizzeria
3951277745,46.0605016182093,11.241717338562,All White Co'Te' Blanc,negozio
171422865,46.0777111328917,11.206226348877,Alla Corte,ristorante
274085436,46.0941563885027,11.2337779998779,Albergo Alla Comparsa,ristorante
3924171662,46.0533542224146,11.4552211761475,Sale & Pepe,pizzeria
1111843220,46.0679383947018,11.2229740619659,New Marval,negozio
5748664774,46.0120003033086,11.2999534606934,Farmacia De Prez,farmacia
3952792064,46.0613651992214,11.2383913993835,Al Posta,pizzeria
3952815305,46.0616629826454,11.2421894073486,Dary Car,automoto
975597307,46.0605760653803,11.2293362617493,Punto Verde Xausa,negozio
9646318391,46.0616406489443,11.241706609726,La Bottega dei Semplici di Anesi Carlo,negozio
7687845036,46.0596,11.2372,Albergo Ristorante Turismo,ristorante
1111843220,46.0679383947018,11.2229740619659,m@mo srl,negozio
1249248156,46.0648342764741,11.2293362617493,Lucky Floor,negozio
235975728,46.0396971464544,11.2421035766602,Albergo Ristorante Meridiana,ristorante
5748777169,46.0118065702306,11.3008117675781,Pasticceria Milano,gelateria
4597944674,45.9584296347948,11.3272476196289,Baita Al Verle,ristorante
6735363952,46.0634496494611,11.6334915161133,Alimentari Marta e Dobora Sodo,alimentari
1225088527,46.0670228096335,11.2371897697449,Farmacia Pizzo Paolo,farmacia
799244306,46.0112551723709,11.30042552948,Romanda,ristorante
1111843220,46.0679383947018,11.2229740619659,Rebell srl,negozio
1111843220,46.0679383947018,11.2229740619659,Zhang Haidong,abbigliamento
299966136,46.0627498785131,11.6338348388672,Farmacia Rigoni,farmacia
5776442612,46.0531010685176,11.4579033851624,S. Giorgio,ristorante
5743429855,46.0157,11.2954,Umberto I (Grand Hotel Bellavista),ristorante
1111843220,46.0679383947018,11.2229740619659,L'incontro,bar
7687857210,46.0642536306644,11.2307739257813,Carlin Marco,abbigliamento
7687845080,46.058789305571,11.2375330924988,Albergo Ristorante La Rotonda,ristorante
669128410,46.0402631555939,11.2357306480408,Panificio Grisenti,alimentari
269356398,46.0674098881008,11.2531328201294,Bar Cacciatore di Carlin Sergio,bar
1111843220,46.0679383947018,11.2229740619659,Regina,alimentari
31678061,46.0143213218398,11.2961393594742,La Giachenza (Hotel Al Salus),ristorante
72760244,46.0394588250821,11.2998676300049,Compet,ristorante
299966135,46.062600989933,11.6339528560638,Ufficio APT Valsugana - Castello Tesino,info
3952806161,46.0605016182093,11.2399363517761,Bazar Sartori Anna,negozio
6681794737,45.9975727842012,11.6663217544556,Da Remo,ristorante
11688464982,46.0653404755304,11.2367820739746,Panetteria di Rovere Anita,bar
11663050293,46.0593848985985,11.2374043464661,Re Laurino,souvenir
1080452747,46.005964454047,11.3048458099365,Bar Buffet Stazione FS,bar
1224360260,46.058491506648,11.2397432327271,Colorificio San Rocco,negozio
373734502,46.0627498785131,11.2400221824646,Panificio Grisenti,alimentari
1111843220,46.0679383947018,11.2229740619659,Rock Ola,negozio
7687845030,46.0629285442792,11.2340998649597,Colori Nicolini,negozio
1249177535,46.064744946747,11.2300443649292,Zorzi Armando,elettronica
51178661,46.078782828274,11.2766933441162,Famiglia Cooperativa,alimentari
1111843220,46.0679383947018,11.2229740619659,Salmoiraghi e Viganò,ottico
28922411,46.0697769627506,11.2211179733276,Tecnoserramenti Trentino,negozio
521528962,46.0751,11.2107,Albergo Ristorante Pizzeria Cirè,ristorante
318750696,46.0614768681936,11.6317749023438,Canterbury,ristorante
28922411,46.0697918496914,11.2216114997864,Pescheria Flli Ferrari,alimentari
484943113,46.0318915870783,11.2476396560669,Famiglia Cooperativa,alimentari
7687845056,46.0627052119812,11.2349581718445,Automobili Euroauto Prestige srl,automoto
227916405,46.0028344951262,11.2955760955811,Bar AGIP 2000,stazioneservizio
1225088527,46.067037697317,11.2370824813843,Tabaccheria Floriani,tabacchino
7687845051,46.0609110764076,11.2374258041382,Famiglia Cooperativa,alimentari
5763526111,46.0091538490556,11.3007581233978,Spiky Pizza,ristorante
4046069857,46.0365393048476,11.2340784072876,Lido S. Cristoforo,discoteca
3929613019,46.0538754179604,11.4579033851624,Farmacia Centrale,farmacia
9646318388,46.0616183152342,11.2419319152832,Carpe Diem di Obletter Adriana,abbigliamento
1111843220,46.0679383947018,11.2229740619659,Tabacchi,tabacchino
984550749,46.0713251830811,11.6217756271362,Bar Al Ponte,bar
625509309,46.039786516704,11.3001251220703,Aurora L'Istciot,ristorante
1111843220,46.0679383947018,11.2229740619659,Conbipel,abbigliamento
106667856,46.0304316463401,11.2284135818481,Famiglia Cooperativa,alimentari
1111843220,46.0679383947018,11.2229740619659,Zanolli,negozio
555145129,46.0030431645636,11.2820792198181,Spaghetti Club,ristorante
3951298217,46.0595040164331,11.2409341335297,Ottica Deflorian ,ottico
85540804,46.0559750416231,11.2366318702698,Speedy Motor,automoto
1224360570,46.0623181005246,11.2430906295776,Perché Bar,bar
439875510,46.0414547348297,11.2355589866638,Farmacia comunale,farmacia
3952806160,46.0603341117075,11.2405747175217,Bar Alexander,bar
24914434,46.0852274462383,11.21506690979,Famiglia Cooperativa,alimentari
11663348708,46.0620352096668,11.2359666824341,Ottica Avanzi - Colorvision outlet srl,ottico
293868275,46.0609036317401,11.2390995025635,Zeni Antonio,tabacchino
391300010,46.0807773170405,11.263325214386,Zampedri Claudio,bar
293870952,46.0623106560469,11.2429296970367,Farmacia Bottura,farmacia
9897145593,46.0650873765824,11.633083820343,Cartoleria Tabacchi Sbarbati Rosina,tabacchino
1172425953,46.0537413967184,11.454963684082,Farmacia Bailo,farmacia
521528962,46.0771038296022,11.2075567245483,Carrozzeria Cirè,automoto
42028965,46.0602336075625,11.2399578094482,L. Ochner Confezioni dal 1820,abbigliamento
10100657378,46.0105249343124,11.3034510612488,Edicola Passerini,tabacchino
5751006078,46.0127305218879,11.3028287887573,Bar Alpino,bar
35100548,46.0832033517091,11.2760496139526,Bar Al Sole,bar
279419469,46.0060836870758,11.3802909851074,Carlon,ristorante
1111843220,46.0679383947018,11.2229740619659,Euronics,elettronica
5774714668,46.0149211197783,11.3185787200928,Famiglia Cooperativa,alimentari
620788837,46.0044814717762,11.2593019008636,Pizzeria Spaghetteria Panorama,pizzeria
5774596747,46.0115457746307,11.301144361496,Bar Serena,bar
293618246,46.0719280840569,11.236664056778,Bar Al Ponte,bar
5763460365,46.0108826031376,11.3016486167908,Vecchia Fontana,pizzeria
28920845,46.0640005267336,11.2340354919434,Euroceramica,negozio
6792995665,46.0056067534188,11.3371610641479,Famiglia Cooperativa,alimentari
3952792088,46.0611790837658,11.2386810779572,Alles Market sas,igienici
174631006,46.0320107642115,11.4552640914917,Osteria Caraco,bar
28922356,46.0675587637116,11.2245941162109,Eurobrico,negozio
3952806160,46.0603750577882,11.2405371665955,Vecchia Europa (ex Vecia Latteria),bar
225930696,46.0499142084498,11.4064264297485,Pala di Francesco Guardi,monumento
23317343,46.069285691454,11.2365031242371,Pavimentazioni AVI Porfidi,negozio
3952821566,46.0620054315974,11.2427151203156,Famiglia Cooperativa,alimentari
340683367,46.0305955191606,11.2321901321411,Bar Smile,bar
5759889204,46.0106292546253,11.296112537384,Vecchia Fattoria,pizzeria
3952815305,46.0616927608994,11.2421250343323,Orologeria Oreficeria Iori,gioielleria
35673497,46.0584170566664,11.2157535552979,Famiglia Cooperativa,alimentari
679283979,46.0635985357524,11.2323403358459,Spazio Legno,negozio
6864419862,46.0638814185999,11.2342286109924,Perini Carlo,negozio
3952821563,46.0626754342732,11.2425327301025,Libreria Athena,cartoleria
5748714497,46.0116277390946,11.3014984130859,Famiglia Cooperativa,alimentari
5748714488,46.0114489073805,11.301691532135,Edicola Pinamonti,tabacchino
1111843220,46.0679383947018,11.2229740619659,Original Marines,abbigliamento
7687845025,46.0599804852016,11.2374258041382,Carlin Mauro,gelateria
5776542429,46.0510609035782,11.4566588401794,La rustica,pizzeria
3952815305,46.0617672064643,11.242264509201,Penelope,abbigliamento
35673491,46.0588935348146,11.2173414230347,Eurocoperture,negozio
320282379,46.0656680136228,11.6557645797729,Pista NeveGhiaccio Parco La Cascatella,snowpark
92291184,46.1051370051494,11.6551208496094,Chalet Paradiso,pizzeria
6508558225,46.0531978627917,11.4557898044586,Bar Milano,bar
975579629,46.0677969638538,11.2218046188354,G.T.Car,automoto
4525321569,46.0610971927666,11.2385308742523,Sopra Sotto di Smerrieri Alessandro,abbigliamento
5748667830,46.0118661804807,11.3001894950867,Furlani Alimentari,alimentari
5774714667,46.0151744486306,11.3186645507813,Bar Selva,bar
3952806175,46.0608291850108,11.2405586242676,Caffè Alexander,bar
186973059,46.069680197538,11.2069988250732,Alla Stella,pizzeria
3952806161,46.0604718393128,11.239914894104,Bazar Sartori,abbigliamento
1300059484,46.0601889389949,11.2375116348267,Officina Grisenti  ,automoto
3952792088,46.0610785811589,11.2385952472687,Estetica Profumeria Carlin,wellness
3952806161,46.0602931655965,11.2398827075958,Calzature Fruet,abbigliamento
481282430,46.041953701001,11.6472887992859,Camping Alice,pizzeria
275593383,46.0636878673345,11.2319433689117,Tentazioni - Artigianato artistico,souvenir
373734502,46.0626158788091,11.2396359443665,Eredi di Petri Paolo,negozioanimali
11663854128,46.0664124111509,11.2405371665955,Abdi Dr. Mehdi,farmacia
9406596718,45.9919825998215,11.2621021270752,Mercatino di Natale di Caldonazzo,mercato
1108425613,46.0413951564783,11.3098239898682,Bar Maso Al Vetriolo Vecchio,ristorante
3952792084,46.0611269713258,11.2387561798096,Ferrari Veronica,negozio
1111843220,46.0679383947018,11.2229740619659,Calzedonia,abbigliamento
3952792086,46.0596678030361,11.2392604351044,Idroblu di Prighel Marco,negozio
26789155,46.0597199168533,11.2380802631378,Eurotendaggi,negozio
3952806170,46.0614992019609,11.2415456771851,Operà di Dalla Costa Ketty,abbigliamento
10250777007,46.0654595805161,11.2365889549255,Estetica Azzura,wellness
28924553,46.0607696275551,11.2393140792847,I Monelli di Mengarda Sonia,abbigliamento
5414900370,46.0042057370213,11.2893962860107,Bax Bar,bar
228591581,46.0607324041126,11.2390458583832,Lilian di Alvarez Gallardo Carolina,abbigliamento
1300059484,46.0603080550949,11.2373828887939,Cafè Ristorante Sapori e Saperi ,ristorante
896919760,46.0019103781571,11.3096523284912,Bici Grill Levico,ristorante
230568352,45.9968274589106,11.266758441925,Bar Imbiss Stube SNOOKY,bar
3952815307,46.0617820955652,11.2423825263977,Non solo pane,alimentari
7687845041,46.059265780507,11.2373828887939,Pizza Mania,ristorante
480010342,46.0649087178029,11.2466311454773,Filippi Gianni & Sergio,automoto
5763460365,46.0107782833025,11.3015627861023,Il Buongustaio,alimentari
39962670,46.0647747233388,11.2451076507568,Pasticceria Laner,gelateria
406814319,46.0140605380983,11.2964558601379,Ufficio APT Valsugana - Levico Terme,info
7687845074,46.0592062213648,11.2373399734497,Nuova Auto 1,automoto
40609130,46.0837391486647,11.2188863754272,Farmacia Ruperti Salvatore,farmacia
423844092,46.1188671376725,11.6885089874268,Pizzo degli Uccelli,ristorante
187831429,45.9926907210768,11.2591302394867,Alla Torre,pizzeria
1224361145,46.0618714300865,11.242618560791,Pasticceria Grazia di Angeli Samantha,gelateria
5808652209,46.0803159118704,11.5529179573059,Bar Trento,pizzeria
5772430020,46.0091240424769,11.3117229938507,Papillon,pizzeria
3928874021,46.0539052004145,11.4564657211304,Bar Trento,bar
5763168378,46.0101970691908,11.2993097305298,Eta Beta,tabacchino
1366801107,46.070125,11.124925,IL LIBERTINO,ristorante
1771338637,46.077346,11.116822,Villa Fontana ***,hotel
991704001,46.069024,11.11869,Residenza Torre Vanga,appartamentovacanze
1371175994,46.051386,11.072276,Europa **,hotel
1163921667,46.090495,11.116468,CASSA RURALE DI TRENTO  Filiale 21 di Trento città,banca
1638162224,46.072929,11.122554,Buonconsiglio ****,hotel
74502618,46.069691,11.121088,LOCANDA MARGON,ristorante
122798324,46.041741,11.059603,Le Blanc Hotel & Spa ****,hotel
1145414705,46.071057,11.121219,Grand Hotel Trento ****,hotel
975288305,46.077116,11.119435,S. Lorenzo,farmacia
1220020550,46.066263,11.122532,Ada,bedbreakfast
885669979,46.070811,11.119451,Autostazione Servizio Extra-urbano,autostazione
867377077,46.070544,11.121636,CLESIO c/o GRAND HOTEL TRENTO,ristorante
24594397,46.032785,11.130995,Cantina Sociale di Trento Le Meridiane S.C.A.,prodottitipici
939851135,46.067167,11.12356,Poste Italiane,posta
10978403599,46.096732,11.056698,Lido Lillà **,camping
969087892,46.06997,11.119194,"Ostello della Gioventù ""Giovane Europa""",hotel
429202410,46.053678,11.129609,S. Bartolomeo,farmacia
512340863,46.079826,11.001282,dott.Turazza Luigi,farmacia
10883130778,46.07767,10.998849,Poste Italiane,posta
1264896472,46.061719,11.129111,DOC,ristorante
292015813,46.076499,11.142019,Comunale Cognola,farmacia
39624386,45.973434,11.090397,Il Grappolo,bedbreakfast
11591750409,46.101804,11.094818,Trentino Trasporti S.P.A.,autostazione
34991170,46.100695,11.096802,Val dAdige ***,agriturismo
1331468410,46.068016,11.1215,Palace,bedbreakfast
158461569,46.076705,11.062649,Le Trecime,bedbreakfast
81846322,46.074016,11.146816,HOTEL RELAIS VILLA MADRUZZO,ristorante
574541271,46.066705,11.129454,CASSA RURALE DI TRENTO  Filiale 33 di Trento città,banca
75614546,46.078611,11.11841,Everest ***,hotel
948758405,46.069636,11.121366,"Azienda per il Turismo Trento, Monte Bondone, Valle dei Laghi",souvenir
165174345,46.127911,11.11635,Comunale Meano,farmacia
1508604557,46.063579,11.122524,AI Tre Portoni,bedbreakfast
97144529,46.044952,11.121665,PalaTrento,camposportivo
27283261,46.095809,11.118843,Poste Italiane,posta
23976836,46.065855,11.114854,Sanseverino,parcheggio
9062862219,46.101533,11.101316,MOVER,ristorante
85334603,46.047503,11.142572,Villazzano,farmacia
37102134,46.040282,11.13353,Comunale Madonna Bianca,farmacia
28425557,45.995601,11.126269,Karinhall ***,hotel
268460172,46.065133,11.116581,CTE Trento Fiere,parcheggio
1312440734,46.068788,11.120519,Accademia ****,hotel
55848022,46.107819,11.091836,CASSA RURALE DI TRENTO  Filiale 24 di Trento città,banca
24860724,46.064179,11.11428,Stadio Briamasco,camposportivo
173955985,46.04488,11.129751,CASSA RURALE DI TRENTO  Filiale 22 di Trento città,banca
268460172,46.065043,11.116423,TRENTO FIERE S.P.A.,mercato
867377383,46.068883,11.121255,CHISTE,ristorante
67027655,46.055005,11.120361,NIKY'S,ristorante
68892839,46.089483,11.06394,alla Posta,residence
2591984552,46.070588,11.111381,Comunale Piedicastello,farmacia
106168742,46.027185,11.136261,Casteller ***,agriturismo
428314123,46.049893,11.124869,Poste Italiane,posta
93703618,46.03849,11.058583,Scuola Italiana di Sci Monte Bondone,scuolasci
3123786462,46.058385,11.122288,Sofia,bedbreakfast
2365638497,46.075766,11.125028,La Porta della Malvasia,bedbreakfast
3452494672,46.065676,11.125497,Piazza Fiera,parcheggio
2304263435,46.068676,11.121286,T&T Services Di Nguyen Thu Thuy,wifi
1687733849,46.069092,11.118484,International Communication And Service'S M.D.,wifi
268429704,46.067421,11.124174,Gallo,farmacia
1371175970,46.050818,11.072727,Trento Funivie S.P.A. - Monte Bondone,funivia
1768099774,46.071188,11.125855,ALLA MOSTRA,ristorante
39467696,46.091812,11.184162,La Rosa Blu,bedbreakfast
2365638462,46.077333,11.124297,Chaudhry Food And Phone Center S.A.S.,wifi
6239519384,46.006964,11.127718,Mattarello,farmacia
2592001425,46.017383,11.105784,Prime Viole,bedbreakfast
23058856,46.070934,11.135937,Marina,bedbreakfast
2263411770,46.038625,11.05827,Prada Sport *,hotel
1203043006,46.0707,11.11468,Chiesa di Sant'Apollinare,monumento
382630161,46.041348,11.134112,Madonna Bianca,piscina
1293893676,46.070986,11.12343,AMERICA  EL MERICAN,ristorante
24594397,46.033955,11.129333,AL MARINAIO ,ristorante
12195193073,46.041015,11.059336,Alpine Mugon ****,hotel
2953568,46.043122,11.112756,Cantine Ferrari - F.lli Lunelli,prodottitipici
1150232421,46.071533,11.126296,Castello del Buonconsiglio,museo
37017178,46.062494,11.124451,Teatro Auditorium Santa Chiara,teatro
1639069277,46.072819,11.122795,Nettuno,bedbreakfast
1206136854,46.064622,11.123308,DUE MORI ,ristorante
176723413,46.14205,11.155242,AL VOLT,ristorante
205074301,46.055983,11.129713,"Centro Sportivo ""G. Manazzin""",piscina
74502618,46.069691,11.121088,AI VICOLI ,ristorante
73917492,46.069831,11.118466,Torre Vanga,monumento
1755063720,46.072248,11.124901,Torre Verde,monumento
574537081,46.068391,11.124797,Trio Comunicazioni S.R.L.,wifi
2565396445,46.100986,11.118995,Al Parco di Melta,bedbreakfast
122103283,46.037797,11.107424,Juta S.P.A.,wellness
25457712,46.038218,11.105627,Relais Villa Sizzo,bedbreakfast
74502618,46.069691,11.121088,GREEN TOWER,ristorante
2185765240,46.058586,11.127447,Poste Italiane,posta
131859475,46.089313,11.131508,Martignano,farmacia
1359825886,46.097863,11.101995,Roncafort,farmacia
6979217136,46.104706,11.112894,Centro Sportivo Trento Nord,piscina
2195683493,46.069591,11.119432,Eden,bedbreakfast
865298450,46.067268,11.121232,Venezia **,hotel
6220577270,46.073767,11.12491,Grandi,farmacia
865298453,46.067352,11.120883,SCRIGNO DEL DUOMO,ristorante
12195225552,46.039757,11.058471,Nevada **,hotel
1163921667,46.09139,11.117187,Palazzo Onda,parcheggio
27168509,46.094022,11.131381,Maso Bergamini,prodottitipici
43924940,46.066547,11.115186,Duomo,parcheggio
1156445057,46.066873,11.121001,Cattedrale di San Vigilio,monumento
74502618,46.069691,11.121088,LA CANTINOTA,ristorante
6706268,45.993213,10.97172,dott.Folgoresi Paolo,farmacia
572680587,46.090763,11.137347,Al Vigneto **,agriturismo
1633007266,46.070791,11.123888,AL VO,ristorante
307407922,46.10611,11.108828,Gardolo di Renato Brandolani,farmacia
1236077475,46.10205,11.108711,La casa di Maria Carlotta,bedbreakfast
7723612025,46.082799,11.116216,Casa Pompermaier,bedbreakfast
780481329,46.00625,11.136672,TORREFRANCA,ristorante
74502618,46.069691,11.121088,IL CAPPELLO,ristorante
930616203,46.068916,11.122541,FORST,ristorante
66615839,46.064241,11.131618,Rosagalina,bedbreakfast
1687770919,46.067966,11.118869,IL SIMPOSIO,ristorante
1264896490,46.060886,11.127754,Anna,bedbreakfast
810788545,46.078295,11.103798,Doss Trento,bedbreakfast
24875310,46.063177,11.113539,Palazzo delle Albere,museo
1366801126,46.069413,11.126516,OSTERIA DA GUIDO,ristorante
474970456,45.980768,11.091773,Cantina Aldeno,prodottitipici
2556494830,46.059068,11.120149,Mercato del Contadino,mercato
950503825,46.071146,11.120438,Mercato del Contadino,mercato
121967969,46.074872,11.058361,Sopramonte,farmacia
25215957,46.040717,11.110908,Dott. Betta,farmacia
853802730,46.0657,11.123022,AI TRE GAROFANI,ristorante
7065776426,46.069881,11.15035,Le Ziette,bedbreakfast
3996181,46.021268,11.127047,Museo dell'Aeronautica G. Caproni,museo
3110555132,46.051187,11.111769,Sporting Trento ***,hotel
1212946052,46.07352,11.103739,San Giorgio della Scala ***,hotel
3669344298,46.057736,11.112491,OLYMPIC,ristorante
26627910,46.075252,11.137725,4 STAGIONI,ristorante
2365638497,46.075766,11.125028,La Malvasia,bedbreakfast
144908724,46.078373,11.131349,Alle Coste,bedbreakfast
43925775,46.072694,11.112928,Museo Storico delle Truppe Alpine,museo
74502618,46.069691,11.121088,ROSA DORO,ristorante
14974935,46.026457,10.960092,Mina,agriturismo
25090806,46.019599,11.107435,Casa dellAlbicocco,bedbreakfast
75614546,46.078808,11.11828,EVEREST,ristorante
820666430,46.04232,11.006337,Casa Olimpia,bedbreakfast
910573080,46.05941,11.127653,Casa Elisa,bedbreakfast
100269153,46.057121,11.153097,Ca Bianca,bedbreakfast
43925775,46.072694,11.112928,Mausoleo Cesare Battisti  Doss Trento,monumento
24860487,46.073427,11.124626,Buonconsiglio,bedbreakfast
36885756,46.067065,11.1636,Ada2,bedbreakfast
1001225566,46.066404,11.123421,Palazzo Roccabruna - Enoteca provinciale del Trentino,museo
70439850,46.001799,11.085583,Laghetto ***,hotel
172012373,46.033933,11.004701,Floriani ***,hotel
1271817895,46.054177,11.135225,Residenza Gocciadoro,appartamentovacanze
23058904,46.070127,11.119711,DUO,ristorante
1640507707,46.078527,11.122867,CASSA RURALE DI TRENTO  Filiale 02 di Trento città,banca
10959297453,46.112204,11.046929,Le Vallene ****,agriturismo
71712116,45.97613,10.97928,Campo Fiorito **,agriturismo
557197352,46.066836,11.120642,Mercato settimanale,mercato
702158101,46.019617,10.984493,Dosila ****,agriturismo
1073656740,46.067904,11.125848,Residenza Galileo,appartamentovacanze
1276868946,46.088598,11.121165,CASSA RURALE DI TRENTO  Filiale 18 di Trento città,banca
10905526284,46.046988,10.952119,Ideal ***,hotel
1371175970,46.050822,11.072705,Studio 1,discoteca
213521363,46.062526,11.113808,MUSE - Museo delle Scienze,museo
72832367,46.06745,11.12088,TEX-MEX RESTAURANT CUEVA MAYA,ristorante
74502618,46.069691,11.121088,La Cantinota,discoteca
441401000,46.043697,11.136582,Collina appartamenti,appartamentovacanze
51547879,46.078486,11.000055,Al Borgo,bedbreakfast
5595169611,46.068332,11.127067,Residenza PortAquila,appartamentovacanze
70439885,46.001956,11.085328,Miramonti ***,hotel
269193730,46.064877,11.123262,CASSA RURALE DI TRENTO  Filiale 13 di Trento città,banca
224636692,46.091734,11.105054,CASSA RURALE DI TRENTO  Filiale 08 di Trento città,banca
2607250269,46.056672,11.120206,CASSA RURALE DI TRENTO  Filiale 03 di Trento città,banca
2591984550,46.070648,11.111976,Residenza Piedicastello,appartamentovacanze
431622345,46.075654,11.118237,Poste Italiane,posta
939851135,46.067167,11.12356,Mercato dei Prodotti Alimentari,mercato
83834618,46.080033,10.991864,La Fattoria ***,agriturismo
6342878357,46.103108,11.110538,Residenza Al Parco,appartamentovacanze
70439850,46.001008,11.086031,Biblioteca Comunale di Garniga Terme,biblioteca
93670030,46.027558,11.045175,Dolomiti Chalet Family hotel ***,hotel
2467486946,46.065072,11.113966,SAPORI MEDITERRANEI,ristorante
24785843,46.067474,11.121946,Torre Civica,museo
691266886,46.080888,11.043555,Terme San Leonardo ***,hotel
93732959,46.051062,11.072427,Orizzonte ***,residence
112579061,46.122042,11.09206,Residenza Antonella,appartamentovacanze
2455219,46.037776,11.056135,Cielo Aperto ***,residence
1241749176,46.041486,11.004835,Piccolo Principe ****,hotel
22327486,46.009913,11.138838,Villa Bertagnolli,bedbreakfast
37287626,46.053007,11.124232,CASSA RURALE DI TRENTO  Filiale 06 di Trento città,banca
8808531439,46.068504,11.119183,Chiesa di Santa Maria Maggiore,monumento
1773068085,46.085279,11.118651,Bonvecchio Associati & C. S.A.S.,wifi
81846322,46.074083,11.146586,Relais Villa Madruzzo ****,hotel
28425557,45.995601,11.126269,Karinhall,appartamentovacanze
121967941,46.068303,11.056526,Relais Vecchio Maso ****,hotel
12004034885,46.01735,11.10604,Casa Brunelli,bedbreakfast
528449200,46.113237,11.11326,Maso Villa Warth ***,agriturismo
820638089,46.018126,10.947414,Pietra Rara ****,affittocamere
24785843,46.067474,11.121946,Museo Diocesano Tridentino,museo
288917447,46.066316,11.154153,Comunale Povo,farmacia
657200061,46.081945,11.102854,Vela ***,hotel
51547879,46.078544,11.000133,Biblioteca Comunale di Vezzano,biblioteca
1369533421,46.06957,11.119456,Centro,bedbreakfast
430690363,46.069454,11.123448,S.A.S.S. - Spazio Archeologico Sotterraneo del Sass,museo
176702875,46.142265,11.103669,Sartoris ****,hotel
234007068,46.030487,10.958814,Doss dei Pini,bedbreakfast
744399496,46.045056,11.121478,Le Giare **,agriturismo
975288350,46.068418,11.12128,Galleria Civica,museo
11641332804,46.069981,11.123334,Museo della S.A.T. ,museo
1110127,46.067225,11.120036,A LE DUE SPADE,ristorante
93732959,46.051062,11.072427,Zodiaco ***,hotel
558628462,46.071743,11.12277,Poste Italiane,posta
69023599,46.061551,10.990252,Bressan *,hotel
867377128,46.073662,11.120245,Stazione dei Treni - Trento - Malé,stazionetreni
908484133,46.045153,11.128083,Radio Taxi Trento,taxi
10961330218,46.110753,11.047959,Laghi di Lamar **,camping
1521825040,46.067339,11.120865,Dall'armi,farmacia
1216503632,46.035116,11.126162,Al Marinaio ***,hotel
71520524,46.067767,11.112756,Poste Italiane,posta
181128648,46.013535,11.084722,BergwanderHaus,affittocamere
249701997,46.069664,11.121003,Biblioteca Comunale di Trento  Sede centrale,biblioteca
668463348,46.072428,11.139525,Comunale San Donà,farmacia
91501551,46.0731,11.126414,Albermonaco ***?,hotel
83863455,46.024443,10.959801,AI Masi ****,agriturismo
1203876948,46.097345,11.04517,CASSA RURALE DELLA VALLE DEI LAGHI  Filiale di Terlago,banca
9972443141,46.10594,11.108679,Capitol,residence
1115140733,46.058436,10.9809,IL GIARDINO DELLE SPEZIE,ristorante
24441737,46.057323,11.113609,Monte Baldo,parcheggio
1062772098,46.065583,11.122052,ORSO GRIGIO,ristorante
37017178,46.062494,11.124451,Teatro Cuminetti,teatro
316389198,46.290531,11.465401,viale Dolomiti - Cavalese,parcheggio
33889542,46.309922,11.446894,campo sportivo - Daiano,parcheggio
364822145,46.071124,11.124129,America ***,hotel
167096836,46.312575,11.686351,"seggiovia Castelir, Le Fassane 1 - Bellamonte",parcheggio
1765153178,46.063744,11.123622,S. Chiara,farmacia
12195225552,46.039756,11.058479,NEVADA,ristorante
108785423,46.274078,11.416885,via Weber- Molina,parcheggio
24915127,46.07658,11.111152,Area ex Zuffo,parcheggio
3318400861,46.053261,11.131301,Poste Italiane,posta
25163770,46.285676,11.46529,via Cermis - Cavalese,parcheggio
70439850,46.000874,11.086009,"Azienda per il Turismo Trento, Monte Bondone, Valle dei Laghi",souvenir
557197357,46.067906,11.12293,Santoni,farmacia
27662016,46.30818,11.598246,via Barbieri - Predazzo,parcheggio
396222469,46.305379,11.458331,via Alpini (2) - Varena,parcheggio
24310654,46.301221,11.452248,via al Cervo - Daiano,parcheggio
27368455,46.273262,11.416435,piazzza Italia - Molina,parcheggio
1886935426,46.02325,11.038169,RIFUGIO VIOTE,ristorante
230751467,46.34086,11.538218,"seggiovie Agnello, Latemar - Pampeago",parcheggio
44057981,46.272536,11.417111,via Segherie (1) - Molina,parcheggio
1411606874,46.279996,11.434202,via Roma - Castello,parcheggio
975242535,46.288507,11.461356,parco della Pieve - Cavalese,parcheggio
1223305705,46.046029,11.120556,Ghiaie (via Fersina),parcheggio
10883130743,46.07595,10.996899,CASSA RURALE DELLA VALLE DEI LAGHI  Filiale di Vezzano,banca
60231195,46.058905,10.97911,Miralaghi **,hotel
27168509,46.094022,11.131381,Maso Bergamini ***,agriturismo
400435242,46.312938,11.59993,corso De Gasperi - Predazzo,parcheggio
1371175970,46.050818,11.072727,Maestri di Sci Azzurra Monte Bondone,scuolasci
1006681482,46.287856,11.462801,piazza Autostazione - Cavalese,parcheggio
24392582,46.067882,11.152011,Ponte Alto*****,agriturismo
75601412,46.075241,11.122385,Centro Europa,parcheggio
98184588,46.29628,11.785378,Cimon - Passo Rolle,parcheggio
10889024341,46.073736,10.997529,Teatro Valle dei Laghi,teatro
775556640,46.069568,11.115417,Funivia Trento - Sardagna,funivia
461609182,46.292748,11.443278,via Giovanelli (2) - Carano,parcheggio
37236979,46.108217,11.112501,Dott. Poli Sandro,farmacia
10978403601,46.097411,11.058246,Monte Bondone ***,hotel
462187995,46.29197,11.440414,via Giovanelli (1) - Carano scuole elementari,parcheggio
23913965,46.046895,11.127781,Comunale Clarina,farmacia
167096838,46.311308,11.616935,via Venezia - Predazzo,parcheggio
1537286578,46.065422,11.123858,UVA E MENTA,ristorante
201114705,46.352304,11.486312,malga Varena - Passo Lavazè,parcheggio
58734644,46.288181,11.513048,piazza Chiesa - Tesero,parcheggio
23691829,46.072009,11.119719,Stazione dei Treni,stazionetreni
95209158,46.283125,11.524775,via Tresselume - Lago,parcheggio
58779178,46.290443,11.456482,piazza Pasquai - Cavalese,parcheggio
1777803861,46.046327,11.065047,MALGA CANDRIAI,ristorante
71520356,46.071179,11.118935,Badia di San Lorenzo,monumento
9873982870,46.312805,11.665258,via Azzole - Bellamonte,parcheggio
326115938,46.35691,11.495324,malga Daiano - Passo Lavazè,parcheggio
7463504165,46.281145,11.432893,via Cesure - Castello,parcheggio
33925178,46.29724,11.504755,via Cerino - Tesero,parcheggio
1485156186,46.090138,11.116189,Top Center,centrocommerciale
462913346,46.289701,11.466345,via Rossini - Cavalese,parcheggio
25006492,46.010897,11.10958,Prà Sec ****,agriturismo
2167408644,46.071114,11.124084,America 2,appartamentovacanze
64167420,46.285475,11.552476,ss48 - Panchià,parcheggio
699709081,46.286031,11.567239,via Verdi (2) - Ziano,parcheggio
173955985,46.04488,11.129751,Big Center,centrocommerciale
25163570,46.285935,11.455949,via Pillocco - Cavalese,parcheggio
118395003,46.011903,11.139181,Locanda del Bel Sorriso,affittocamere
113612232,46.299701,11.504313,campo sportivo - Tesero,parcheggio
24310655,46.304452,11.456722,via Alpini (1) - Varena,parcheggio
2263411770,46.038445,11.058484,Noleggio Sci F.lli Degasperi S.A.S.,noleggiosci
60231194,46.058938,10.978665,Due Laghi *,hotel
73512425,46.292638,11.45705,via IX Novembre - Cavalese,parcheggio
272892223,46.003263,11.086387,Dallago Luciano,agriturismo
600596202,46.310908,11.598804,ITC - Predazzo,parcheggio
12195223546,46.040137,11.05859,CHALET LO SCIATORE,ristorante
64167407,46.28509,11.549247,campo sportivo - Panchià,parcheggio
23691829,46.072009,11.119719,Autostazione Servizio Urbano,autostazione
24066133,46.282094,11.432882,via Borno - Castello,parcheggio
24860487,46.07268,11.124016,Autosilo,parcheggio
5791425953,46.291577,11.438644,piazza Mich - Carano,parcheggio
1886935426,46.023118,11.03803,Viote,rifugio
892578824,46.066061,11.123937,Mercatino dei Gaudenti,mercato
93739003,46.066711,11.082013,Malga Candriai ***,agriturismo
1076808529,46.29999,11.44992,parco giochi - Daiano,parcheggio
490993189,46.289286,11.539087,via Costa - Panchià,parcheggio
81987869,46.086477,11.125288,Maso Wallenburg **,agriturismo
25626078,46.290502,11.514164,via Arestiezza - Tesero,parcheggio
2197651999,46.065497,11.131966,Comunale San Camillo,farmacia
8356539677,46.312516,11.602623,piazza SS. Filippo e Giacomo - Predazzo,parcheggio
23875931,46.277578,11.414021,via Cristel - Molina,parcheggio
265593284,46.057959,11.132696,Bolghera,farmacia
3103267181,46.066693,11.132449,Borgo Rossi Via delle Cave,appartamentovacanze
24874751,46.290509,11.431305,via Val di Fiemme - Carano,parcheggio
36997746,46.057136,11.060485,MALGA BRIGOLINA,ristorante
8807474051,46.292659,11.436766,via Val dell'Osta - Carano,parcheggio
10980260965,46.098071,11.058179,Lillà ***?,hotel
116358087,46.04908,11.145865,Locanda La Canonica,affittocamere
303825098,46.31173,11.600188,via Cavour - Predazzo,parcheggio
23308059,46.290724,11.44065,via Coltura - Carano,parcheggio
1331468357,46.068348,11.115422,Ex Sit,parcheggio
1411606954,46.280908,11.434792,piazza Municipio - Castello,parcheggio
463258241,46.284489,11.453664,campo sportivo - Cavalese,parcheggio
38036655,46.065228,11.12327,Mercatini di Natale,mercato
66096178,46.292489,11.436165,via Libertà - Carano,parcheggio
66087709,46.038109,11.055346,Chalet Caminetto ***,hotel
70259263,46.300643,11.447924,piazza Degasperi - Daiano,parcheggio
75614546,46.078808,11.11828,Athletics,camposportivo
2665778994,46.202564,11.122026,Cantine Rotari / Nosio S.P.A.,prodottitipici
94132080,46.310982,11.661793,via Cece - Bellamonte,parcheggio
7688743698,46.062035,11.151316,Ester,affittocamere
26628743,46.298782,11.446336,via Coltura - Daiano,parcheggio
1371175970,46.050818,11.072727,Sport Nicolussi,noleggiosci
58734646,46.286928,11.509797,via Sottopedonda (2) - Tesero,parcheggio
93703612,46.039487,11.057727,Vason **,hotel
120024525,46.040801,11.058415,Montana ***?,hotel
316710197,46.282502,11.440049,campo sportivo - Castello,parcheggio
1243589096,46.281886,11.435296,via Latemar - Castello,parcheggio
1037290842,46.069657,11.122552,Teatro Sociale,teatro
1154713762,46.289101,11.454984,ospedale - Cavalese,parcheggio
97117414,46.072806,11.128571,Villa Gemma,bedbreakfast
17324118,46.294475,11.506589,via Stava - Tesero,parcheggio
107041381,46.354792,11.491451,passo - Passo Lavazè,parcheggio
46930637,46.010665,11.112742,Locanda de lArguta ***,agriturismo
1583728920,46.283896,11.486258,area festa campestre - Masi di Cavalese,parcheggio
759453868,46.071503,11.113518,Le Gallerie,museo
113612115,46.292259,11.508317,via S. Leonardo - Tesero,parcheggio
6726125803,46.077407,10.998532,Vezzano **,hotel
86060260,46.067842,11.121495,Aquila d'Oro ****,hotel
2304109638,46.09804,11.112821,Alex,appartamentovacanze
3123802726,46.058384,11.121622,Comunale via Veneto,farmacia
93670052,46.048775,11.066649,Norge wellness resort ****,hotel
1187816475,46.037492,11.002635,Lagolo,appartamentovacanze
32431184,45.977536,11.091264,CASSA RURALE DI ALDENO E CADINE BCC S.C.,banca
9062870258,46.073128,11.059396,Poste Italiane,posta
326389275,46.354615,11.493069,centro fondo - Passo Lavazè,parcheggio
657200061,46.081759,11.102821,Vela,affittocamere
261664559,46.283177,11.557916,campo sportivo - Ziano,parcheggio
81846322,46.073858,11.146996,Argentario,camposportivo
369265169,46.286254,11.541222,piazza Chiesa - Panchià,parcheggio
2953568,46.043122,11.112756,Distilleria Segnana - F.lli Lunelli,prodottitipici
24310652,46.308336,11.465873,campo sportivo - Varena,parcheggio
1633046577,46.069877,11.122894,Alla Madonna,farmacia
255422796,46.283399,11.484874,via Chiesa - Masi di cavalese,parcheggio
11465339065,46.290524,11.463331,via Bronzetti garage - Cavalese,parcheggio
30824913,46.312938,11.688067,"seggiovia Castelir, Le Fassane 3 - Bellamonte",parcheggio
37017178,46.062525,11.125071,White Rose,bedbreakfast
368945850,46.286543,11.54237,via Segato - Panchià,parcheggio
303839445,46.289049,11.510709,piazza C. Battisti - Tesero,parcheggio
721087516,46.075419,10.996386,"Azienda per il Turismo Trento, Monte Bondone, Valle dei Laghi",souvenir
255539182,46.283859,11.48098,campo sportivo - Masi di Cavalese,parcheggio
731945922,46.042214,11.113421,Cavit - Cantina ed Enoteca,prodottitipici
3682643029,46.111387,11.092597,Best Western ****,hotel
7706877746,46.004249,11.130939,La Decima ***,agriturismo
462913337,46.291532,11.462526,via Pizzegoda garage - Cavalese,parcheggio
73512421,46.289479,11.464679,Auditorium Palacongressi - Cavalese,parcheggio
1218732155,46.065312,11.083842,Candriai Alla Posta ***,residence
29722270,46.302874,11.452258,via Pasqualine - Daiano,parcheggio
2534165026,46.038818,11.131414,Poste Italiane,posta
1257221027,46.292081,11.458705,Piazza Dante - Cavalese,parcheggio
37017178,46.062525,11.125071,Borgo Rossi Via G. Ossanna,appartamentovacanze
388934086,46.300161,11.448375,via S. Tommaso - Daiano,parcheggio
121968004,46.074019,11.060518,Antica Salumeria Belli,prodottitipici
39092306,46.051567,11.128238,Biblioteca Comunale di Trento  Sede Clarina,biblioteca
64392900,46.275791,11.415255,via Tigli - Molina,parcheggio
3409385911,46.282658,11.55473,via Stazione - Ziano,parcheggio
25792391,46.07596,11.147319,Alla Veduta ***,agriturismo
998661917,46.067961,11.121514,CASSA RURALE DI TRENTO  Filiale 07 di Trento città,banca
385081729,46.289916,11.433816,Piazza Dolomiti - Carano,parcheggio
10978403601,46.097411,11.058247,LILLÀ,ristorante
64167439,46.284993,11.562326,via Roma - Ziano,parcheggio
303828165,46.309537,11.604243,autostazione - Predazzo,parcheggio
489110490,46.046459,11.171936,Maranza,rifugio
108754730,46.302763,11.456174,via Delvau - Varena,parcheggio
261664540,46.287974,11.56946,via Verdi (1) - Ziano aeropark,parcheggio
1190384889,46.093739,11.114816,Bren Center,centrocommerciale
30041304,46.271927,11.42299,via Segherie (2) - Molina,parcheggio
265593284,46.058066,11.132803,CASSA RURALE DI TRENTO  Filiale 01 di Trento città,banca
110064768,46.290138,11.460681,piazza Verdi - Cavalese,parcheggio
126605835,46.288189,11.511117,via Sottopedonda (1) - Tesero,parcheggio
83825767,46.085052,10.991113,Campi Alla Casetta ****,agriturismo
63770368,46.076509,11.019952,Al Vecchio Mulino ***,hotel
793543638,46.280596,11.434513,piazza Posta - Castello,parcheggio
30824913,46.312768,11.687467,"seggiovia Castelir, Le Fassane 2 - Bellamonte",parcheggio
964693113,46.285579,11.541576,municipio - Panchià,parcheggio
140890115,46.290843,11.464017,via Pizzegoda - Cavalese,parcheggio
1669402041,46.070585,11.124683,Borgo Rossi Via Suffragio,appartamentovacanze
364810090,46.290273,11.461734,Piazza Fiera - Cavalese,parcheggio
998661917,46.067961,11.121514,CASSA RURALE DI TRENTO,banca
44842817,45.992227,10.95022,El Belesai,bedbreakfast
882458681,46.310656,11.608738,Sporting Center - Predazzo,parcheggio
2345342898,46.020449,11.041817,Scuola Italiana Sci Fondo Viote,scuolasci
24154770,46.284556,11.47213,funivia Cermis - Cavalese,parcheggio
1364971578,46.038982,11.05688,Accademia dello Sci e Snowboard Nazionale,scuolasci
261664540,46.287966,11.569525,via Verdi (3) - Ziano,parcheggio
196379485,46.055444,11.118314,Poste Italiane,posta
9903647853,46.292518,11.446164,via Giovanelli (3) - Carano,parcheggio
1641560170,46.068191,11.121307,La Bottega degli Antichi Sapori,prodottitipici
263380183,46.326935,11.599758,funivia Latemar 2200 - Predazzo,parcheggio
1404110838,46.099792,11.112011,Oasi *,hotel
67027655,46.055005,11.12036,Comunale S.Pio X,farmacia
66615839,46.064241,11.131618,Zara,bedbreakfast
1371175988,46.051569,11.072813,Augustus **,hotel
1371175962,46.050889,11.072877,"Azienda per il Turismo Trento, Monte Bondone, Valle dei Laghi",souvenir
401768421,46.289975,11.510891,piazza Nuova - Tesero,parcheggio
86529494,46.01488,11.132218,Adige ****,hotel
939851135,46.067167,11.12356,Antica Salumeria Belli,prodottitipici
307993862,46.092449,11.11874,Ai solteri,farmacia
464093829,46.156841,11.158176,AZIENDA VITIVINICOLA VILLA CORNIOLE,prodottitipici
126273701,46.186783,11.258576,Famiglia Cooperativa (filiale di Scancio),alimentari
1809408736,46.117361,11.206416,Castello di Fornace,sitoarcheologico
97548138,46.1743,11.2235,ALBERGO  AL CAMINETTO,hotel
23125354,46.155727,11.159704,OFFICINA MECCANICA ROSSI ARTURO (GIOVO),automoto
259536186,46.140447,11.256796,Bar R.G. al Lago,bar
11608403670,46.183493,11.252488,Famiglia Cooperativa (Filiale di Piazzo),alimentari
261566740,46.124036,11.249076,OFFICINA AUTORIPARAZIONI SIGHEL CLAUDIO,automoto
86967968,46.088967,11.182708,DR. FRANCESCO SIMEON (CIVEZZANO),dentista
35582121,46.1286,11.2505,SIGHEL NOEMI,appartamentovacanze
832929591,46.13169,11.246749,CONAD,alimentari
832929590,46.133624,11.248194,UNICREDITBANCA SPA,banca
528355965,46.14318,11.194926,BIBLIOTECA COMUNALE DI ALBIANO,biblioteca
253576180,46.230556,11.300833,Itinerario Monte Corno,attrazionenaturale
663426458,46.112174,11.21045,OFFICINA MECCANICA ROCCABRUNA SILVANO (FORNACE),automoto
147340971,46.130638,11.204015,BAITA IMPERIALE,pizzeria
269348441,46.191544,11.259397,Bar Segonzano,bar
108867403,46.15741,11.152027,L`Organo Woerle,luogoculto
1229695692,46.127995,11.24419,BIBLIOTECA COMUNALE DI BASELGA DI PINE',biblioteca
74772728,46.188038,11.258871,Distributore Cielle,stazioneservizio
663185034,46.089893,11.182096,FARMACIA DR. BETTI (CIVEZZANO),farmacia
1060829602,46.128802,11.237832,Distributore  Avi Luca & C. Snc,stazioneservizio
102478154,46.130977,11.245748,OFFICINA FIATANESI (BASELGA DI PINE'),automoto
7379484858,46.1258,11.2441,ALBERGO 2 CAMINI,hotel
303845750,46.165075,11.204013,OFFICINA SANTONI GIAMPAOLO (LISIGNANO),automoto
4232243895,46.098591,11.236052,Calzature Carlin Luigi e c. Sas,abbigliamento
24845131,46.180679,11.263719,CHIOSCO ALLE PIRAMIDI,ristorante
102219091,46.09,11.18027,Castel Telvana,sitoarcheologico
1162752771,46.216649,11.351792,MALGA VERNERA,agriturismo
253309849,46.18037,11.23473,LA LOCANDA DEL PASSATORE,ristorante
122919173,46.160929,11.302517,CENTRALE,ristorante
74772728,46.188787,11.258545,CASSA RURALE LAVIS - VALLE DI CEMBRA,banca
269195999,46.099647,11.23604,CLARA (BASELGA DI PINE'),parrucchiera
376085841,46.1486,11.3125,IL CARDO,affittocamere
1809408736,46.117307,11.20574,MUNICIPIO DI FORNACE,servizimunicipali
1118922353,46.176346,11.211987,Caldonazzi Nicoletta,bar
167610559,46.1302,11.21425,LE TRE COLOMBE,ristorante
258446708,46.13038,11.244911,Defant Carlo,ferramenta
53795320,46.086712,11.181388,CIRCOLO ANA,negozio
552938079,46.1863,11.252055,Castello di Segonzano,sitoarcheologico
10857941804,46.13449,11.249128,DESPAR,alimentari
293233391,46.133133,11.245539,Franceschi Andrea,alimentari
490508291,46.223611,11.264444,Itinerario Masi di Grumes - Cauria,attrazionenaturale
42178042,46.174743,11.220299,CASSA RURALE DI GIOVO,banca
74772728,46.186345,11.257423,Centro Benessere Yanna,centrowellness
1236235404,46.154285,11.135871,OFFICINA MECCANICA RENAULTPIFFER LORENZO (GIOVO),automoto
269348445,46.160102,11.234496,CASSA RURALE LAVIS - VALLE DI CEMBRA,banca
97548127,46.175202,11.222485,Saint Rock,bar
1246021760,46.160221,11.234395,Bar Ezzo,bar
293233405,46.12983,11.24389,MARCELLO (BASELGA DI PINE'),parrucchiera
253327023,46.181621,11.237789,MUNICIPIO DI FAVER,servizimunicipali
74058198,46.126167,11.2353998,ALBERGO VILLA BETTY,hotel
24794537,46.125278,11.253611,Dosso di Costalta,attrazionenaturale
102478154,46.1308,11.2455,BROSEGHINI FABIO,appartamentovacanze
24794537,46.125278,11.253611,Itinerario Monte Calvo,attrazionenaturale
124336289,46.176718,11.22373,OFFICINA MECCANICA GOTTARDI ROMANI E F.LLI (CEMBRA),automoto
1218178853,46.216482,11.326995,Anesin Germano,alimentari
7624789903,46.161111,11.301944,Dosso di Segonzano - da Bedollo,attrazionenaturale
1310989310,46.1969,11.2055,Albergo al lago,bar
2967453836,46.135,11.2491,BRAGHIROLI TOMASI ALESSANDRA,appartamentovacanze
82604931,46.096111,11.23472,FRANCESCHI NADIA,appartamentovacanze
1212440287,46.196,11.207999,Lago Santo di Cembra,attrazionenaturale
433554381,46.180544,11.263855,Chiosco Bar Piramidi,bar
257231918,46.12991,11.2332869,ANESI TULLIO,appartamentovacanze
1923458359,46.126415,11.247005,DIMENSIONE DONNA (BASELGA DI PINE'),parrucchiera
42178042,46.174703,11.220088,Rosalpina,bar
4251550369,46.13,11.3213,Area Archeologica Acqua Fredda,museo
87053305,46.175304,11.220627,BIBLIOTECA COMUNALE DI CEMBRA,biblioteca
42178478,46.174888,11.219055,Chiesa di San Pietro in Cembra,luogoculto
1111954595,46.23114,11.298379,OSTERIA DEL GRILLO,ristorante
1060829602,46.1275,11.235,ANESI MARIA,appartamentovacanze
97548127,46.175202,11.222485,SAINT ROCK,pizzeria
26464274,46.108056,11.239444,Dos de la Mot,attrazionenaturale
1303559979,46.162006,11.303689,CASSA RURALE PINETANA FORNACE E SEREGNANO,banca
1203802420,46.140599,11.22129,Lago di Lases,attrazionenaturale
911805835,46.13351,11.246277,Edizioni del Baldo srl,cartoleria-libreria
1188589037,46.1647,11.3069,NATTIVI LUCIANO,appartamentovacanze
1299717583,46.133304,11.246379,ANGEL PIZZA,pizzeria
24766352,46.1441,11.2608,BORTOLOTTI LORENZO,appartamentovacanze
42178042,46.174587,11.219645,LE TERNE DI SALE,centrowellness
11641300380,46.17544,11.222072,APT Altopiano di Piné e Valle di Cembra,ufficioinformazionituristiche
26413849,46.0911,11.1833,L`Organo Bonatti,luogoculto
546185076,46.158268,11.140582,AZIENDA AGRICOLA SIMONI FERRUCCIO,prodottitipici
11971458672,46.160312,11.234491,DOLOMITI,ristorante
390634926,46.097817,11.235697,OFFICINA FIATMOSER (BASELGA DI PINE'),automoto
54175290,46.1243633,11.1806773,Lago di Santa Colomba,attrazionenaturale
258446708,46.130073,11.244584,BAR BIVIO (BASELGA DI PINE'),bar
43320736,46.160536,11.188718,B&B MARIA,bedbreakfast
537513269,46.133657,11.24747,Vecchia Segheria,bar
293233403,46.131508,11.246585,Macelleria Sighel Srl,alimentari
26122960,46.134085,11.248699,APT Altopiano di Piné e Valle di Cembra,ufficioinformazionituristiche
481455271,46.1005,11.235456,S.Giorgio,bar
528731414,46.093855,11.196924,CASSA RURALE PINETANA FORNACE E SEREGNANO,banca
253472990,46.222445,11.294544,Famiglia Coop. Grumes,alimentari
74772728,46.187511,11.258421,POLIAMBULATORIO SEGONZANO,servizisanitari
167597988,46.13097,11.21575,Chiesa di Santo Stefano,luogoculto
122919173,46.161507,11.303142,Fam.Coop.di BEDOLLO-CENTRALE,alimentari
618558173,46.107138,11.18385,CASSA RURALE PINETANA FORNACE E SEREGNANO,banca
102219048,46.088662,11.181083,EDICOLA KATIA,tabacchino
24765059,46.1333992,11.2530465,ANDREATTA ESTER,appartamentovacanze
41532412,46.221944,11.271667,AFFITTACAMERE EL CASEL,affittocamere
24794532,46.135051,11.249366,LD Arredocasa e confezioni Srl,casalinghi
870568952,46.171458,11.247789,Centro Estetica Dama,parrucchiera
261827370,46.1494088,11.2695905,ANDREATTA ONORINA,appartamentovacanze
255423481,46.088704,11.18455,SALONE HAIR CENTER (CIVEZZANO),parrucchiera
1067789596,46.221667,11.293611,SIMEONI LUISA,appartamentovacanze
1923459909,46.12722,11.249635,Bar Talpa,bar
10773693556,46.125632,11.222032,CASSA RURALE PINETANA FORNACE E SEREGNANO,banca
293233426,46.130278,11.245278,SIGHEL CRISTINA,appartamentovacanze
123631727,46.207001,11.266594,INTERNET - CAFE' BEER BAR WNOE',wifi
42691880,46.20683,11.32401,AFFITTACAMERE MASO SVESERI,affittocamere
42673395,46.172555,11.22263,SALONE ARTEPIU' UNISE DI NICOLODI CINZIA (CEMBRA),parrucchiera
832929590,46.13273,11.247403,Erspamer Irene Snc,souvenir
26122961,46.131925,11.246211,OFFICINA RENAULTIORIATTI (BASELGA DI PINE'),automoto
96686887,46.156685,11.162408,Famiglia coop. Mezzolombardo,alimentari
261827791,46.1508,11.273,ALBERGO RISTORANTE DUE LAGHI,ristorante
74772742,46.150465,11.222871,OFFICINA CASAGRANDE BRUNO (LONA-LASES),automoto
37391672,46.081499,11.196569,ANIMALSTORE,negoziodianimali
122919173,46.161289,11.302874,SALONE E PROFUMERIA,parrucchiera
25332483,46.154753,11.286777,PINETA,ristorante
835597492,46.18639,11.252451,AFFITTACAMERE LO SCALCO,affittocamere
3887526675,46.089871,11.18275,BAR STELLA,bar
26135723,46.134668,11.24909,SERRAIA,ristorante
832929590,46.1339,11.2485,ALBERGO ITALIA,hotel
2468231577,46.157005,11.153031,Enrici Giovanna,abbigliamento
293233403,46.1313,11.2463,SIGHEL SANDRO,appartamentovacanze
445468059,46.09015,11.181437,ESTETICA CRISTINA,parrucchiera
9201653,46.083337,11.199099,CENTRO MODA,abbigliamento
24998820,46.1353,11.248,ANESI GRAZIELLA,appartamentovacanze
520622911,46.1716,11.2199,ALBERGO EUROPA,hotel
1127560594,46.117023,11.205888,BIBLIOTECA COMUNALE DI FORNACE,biblioteca
404555196,46.1425,11.193056,Trekking delle cave,attrazionenaturale
1247986847,46.221853,11.316303,POLIAMBULATORIO SOVER,servizisanitari
102219048,46.088479,11.180498,ACCADEMIA DEL VINO CADELAGHET,negozio
253790186,46.221343,11.315623,CASSA RURALE LAVIS - VALLE DI CEMBRA,banca
41532412,46.221951,11.271814,EL CASEL EI MASI,ristorante
102478154,46.130586,11.245097,CASSA RURALE PINETANA FORNACE E SEREGNANO,banca
97548127,46.175202,11.222485,BAR PIZZERIA SAINT ROCK (CEMBRA),bar
126261128,46.144069,11.218891,BAR AL LAGO ,bar
126273701,46.187355,11.2584,Alle piramidi,bar
79813022,46.221549,11.291068,Centro polifunzionale ,camposportivo
24811049,46.126105,11.243675,SALONE GOCCIA DI TESSADRI DIEGO (BASELGA DI PINE'),parrucchiera
255542128,46.10247,11.192871,LA CANOPA,ristorante
110448041,46.142978,11.198171,UNICREDITBANCA SPA,banca
893391491,46.088678,11.181939,BIBLIOTECA COMUNALE DI CIVEZZANO,biblioteca
80415704,46.207592,11.267851,POLIAMBULATORIO VALDA,servizisanitari
11971458672,46.16029,11.235001,ALBERGO DOLOMITI,hotel
1117081891,46.119165,11.212415,Centro polifunzionale ,camposportivo
489377540,46.160758,11.302338,Soc. MACELLERIA CASAGRANDA sas,prodottitipici
1154520451,46.175833,11.166667,Itinerario Monte Corona,attrazionenaturale
1091319079,46.086171,11.202597,OFFICINA FORD BANALI MICHELE (CIVEZZANO),automoto
11739310334,46.099625,11.236178,CASSA RURALE PINETANA FORNACE E SEREGNANO,banca
97548127,46.175,11.2225,RESIDENZA SAN ROCCO,appartamentovacanze
26122960,46.133233,11.248433,ALBERGO ANITA,ristorante
96580180,46.174777,11.218288,Peratoner Silvana,parrucchiera
82604931,46.0959,11.2345,Hotel Belvedere Wellness & Family,bar
661776416,46.089913,11.182325,CASSA RURALE PINETANA FORNACE E SEREGNANO,banca
102478045,46.124444,11.246667,SIGHEL ROSANNA,appartamentovacanze
24765061,46.139986,11.252489,EL FILO',ristorante
97548138,46.174316,11.223368,Virus,bar
74772709,46.168389,11.247134,Do Spaghi,bar
42178684,46.1763,11.2225,GOTTARDI ANNINO,appartamentovacanze
1287407451,46.23814,11.325241,RISTORANTE PENSIONE MARIA TURISMO RURALE,ristorante
97554072,46.17528,11.22057,POLIAMBULATORIO CEMBRA,servizisanitari
1183435146,46.145001,11.192492,POSTA DI ALBIANO,posta
1184663433,46.1408,11.2541,RESIDENZA DOSSALT,appartamentovacanze
504022293,46.095833,11.233056,RENSI CLAUDIO,appartamentovacanze
26135722,46.134631,11.24827,Viliotti Italo & C. Snc,abbigliamento
5711588722,46.089902,11.179608,MUNICIPIO DI CIVEZZANO,servizimunicipali
1190427470,46.109546,11.251311,Famiglia Coop. Altopiano Pinè,alimentari
1102610422,46.158075,11.139298,Pellegrini,abbigliamento
24794532,46.135293,11.249796,Imbarcadero,bar
42178042,46.174888,11.221034,FARMACIA DR. MARTINI (CEMBRA),farmacia
4555224995,46.088608,11.181799,POLIAMBULATORIO CIVEZZANO,servizisanitari
167260543,46.146336,11.218982,BIBLIOTECA COMUNALE DI LONA/LASES,biblioteca
605427556,46.150193,11.271055,OFFICINA TESSADRI AUTOSERVICE (BASELGA DI PINE'),automoto
481455271,46.1005,11.235456,ALBERGO RISTORANTE SAN GIORGIO,ristorante
2967436091,46.1348,11.2491,ALBERGO SERRAIA,hotel
1415471354,46.090168,11.181289,POSTA DI CIVEZZANO,posta
2468231577,46.156583,11.153169,Macelleria Zendron,alimentari
258446708,46.130177,11.244741,POSTA DI BASELGA DI PINE',posta
11739365422,46.101585,11.236245,VILLA ALPINA MONTAGNAGA,servizisanitari
520629207,46.174883,11.221522,POSTA DI CEMBRA,posta
37879270,46.174127,11.22229,CONAD,alimentari
1245762621,46.160278,11.186389,Sentiero Maderlina,attrazionenaturale
253327023,46.181621,11.237789,POLIAMBULATORIO FAVER,servizisanitari
104368429,46.197805,11.246308,DISTILLERIA PILZER S.n.c.,prodottitipici
253348825,46.184477,11.24206,DISTILLERIA PAOLAZZI VITTORIO,prodottitipici
331350610,46.127247,11.249921,AFFITTACAMERE CESCHI MATTEO,affittocamere
24811047,46.135556,11.245833,Passeggiata di Bedolpian,attrazionenaturale
147340971,46.13089,11.20333,Pian del Gacc,attrazionenaturale
480617740,46.20728,11.231062,PONCIACH,ristorante
188521021,46.1828,11.3255,BIO HOTEL  BRUSAGO,hotel
116632025,46.127226,11.247215,Famiglia Coop. Altopiano Pinè,alimentari
832929593,46.133752,11.246306,La casa della pasta Snc,alimentari
110448041,46.144912,11.200249,MAGIC PIZZA,pizzeria
97548088,46.175434,11.223175,CANTINA LA VIS E VALLE DI CEMBRA SCARL,prodottitipici
168005054,46.116194,11.206848,CONAD,alimentari
9201653,46.083434,11.199126,MAGIC PIZZA,pizzeria
832929593,46.13356,11.245848,Lopez Lidia,souvenir
104384273,46.175556,11.223056,Sentiero lago Santo,attrazionenaturale
459107668,46.159722,11.299167,Itinerario Val Regnana - Valle dei Mocheni,attrazionenaturale
239008783,46.157627,11.154821,BIBLIOTECA COMUNALE DI GIOVO,biblioteca
1287407451,46.23814,11.325241,Pensione Maria,bar
188521021,46.1828,11.3255,BIO HOTEL  BRUSAGO VITAL & WELLNESS ,centrowellness
23125354,46.155494,11.159354,SALONE IDEA KATY (GIOVO),parrucchiera
969276151,46.100244,11.236178,Famiglia Coop. Altopiano Pinè,alimentari
434356291,46.160278,11.160278,Sentiero Mancabrot e del lac de Montesel,attrazionenaturale
168005108,46.1175,11.2049,GARNI' TURISMO,hotel
24761337,46.132908,11.24412,Welcher Deborah,cartoleria-libreria
97554072,46.17528,11.22057,MUNICIPIO DI CEMBRA,servizimunicipali
7814778469,46.158268,11.140775,Famiglia coop. Giovo ,alimentari
1171917558,46.087856,11.17972,CANTINA DELL'AZIENDA AGRICOLA MASO CANTANGHEL,prodottitipici
1205979358,46.160278,11.294444,Sentiero Val Regnana,attrazionenaturale
167985902,46.16506,11.300165,Scuola elementare ,servizimunicipali
41532412,46.222074,11.271715,El casel dei masi,bar
86967971,46.0886,11.1822,Ecomuseo dell'Argentario,attrazionenaturale
122919173,46.160929,11.302517,Bar CENTRALE,bar
81244453,46.165933,11.301401,Fam.Coop.di BEDOLLO,alimentari
232312220,46.231097,11.298312,MUNICIPIO DI GRAUNO,servizimunicipali
903868689,46.160526,11.188985,MUNICIPIO DI LISIGNAGO,servizimunicipali
28163749,46.217778,11.3275,Itinerario Malga Vernera - Rifugio Vasoni,attrazionenaturale
76788043,46.221727,11.31456,Vittoria,bar
23125354,46.154552,11.154576,OPERA VITIVINICOLA IN VAL DI CEMBRA,prodottitipici
8070710575,46.1662,11.3542,RIFUGIO GIOVANNI TONINI,rifugio
993570979,46.175016,11.221084,Macelleria Zanotelli,alimentari
234348171,46.221484,11.294114,MUNICIPIO DI GRUMES,servizimunicipali
188521021,46.1828,11.3255,BIO HOTEL BRUSAGO,bar
605440228,46.1313,11.243,SIGHEL GILIO,appartamentovacanze
139782816,46.157,11.1314,AGRITUR MASO POMAROLLI,agriturismo
261567292,46.125,11.2512,OLIMPIC HOTEL,hotel
24790156,46.147499,11.189027,PRO.ME.DE. S.R.L. (ALBIANO),dentista
188521021,46.1828,11.3255,L'OSTERIA DEI TÒNI,ristorante
9201653,46.083337,11.199099,ORVEA SPA,alimentari
11238776946,46.11487,11.2258,Biotopo Laghestel,attrazionenaturale
80345803,46.188397,11.260927,SALONE MYTHO (SEGONZANO),parrucchiera
261559819,46.123916,11.241694,Due Pini,bar
42678714,46.160023,11.173393,AGRITUR RESS,agriturismo
234348171,46.221313,11.294787,SALONE LUI E LEI (GRUMES),parrucchiera
528355961,46.11667,11.207116,PRODOTTI AGRICOLI,prodottitipici
125480046,46.2352,11.2513,RIFUGIO POTZMAURER,rifugio
445468059,46.09015,11.181437,SALONE MELODY,parrucchiera
7624789901,46.16133,11.302546,POSTA DI BEDOLLO,posta
11043617532,46.125932,11.25253,Ice Bar,bar
126273701,46.187355,11.2584,ALBERGO RISTORANTE ALLE PIRAMIDI (SEGONZANO),hotel
239014472,46.15728,11.151411,FARMACIA DR. DEGASPERI (GIOVO),farmacia
42733331,46.126021,11.243774,DUE CAMINI,ristorante
1157716815,46.156293,11.16161,OFFICINA MECCANICA F.LLI TIEFENTHALER (GIOVO),automoto
102478239,46.127746,11.246994,MANI D'ORO DI CASAGRANDE KIARA (BASELGA DI PINE'),parrucchiera
293233407,46.130348,11.244193,DR. GIORGIO MATTIVI E DR.SSA MARICA MATTIVI (BASELGA DI PINE'),dentista
1218178851,46.216712,11.32685,CASSA RURALE LAVIS - VALLE DI CEMBRA,banca
1287407451,46.23814,11.325241,PENSIONE MARIA TURISMO RURALE,hotel
42178042,46.174781,11.220538,PIZZA PONDY,pizzeria
261827791,46.1508,11.273,Due Laghi,bar
122919173,46.161835,11.303649,CALZATURE SVALDI,abbigliamento
253226907,46.190285,11.258556,MUNICIPIO DI SEGONZANO,servizimunicipali
1177098669,46.221105,11.293406,POLIAMBULATORIO GRUMES,servizisanitari
74772742,46.150465,11.222871,OFFICINA MARCHI (LONA-LASES),automoto
1205978310,46.126111,11.253889,Itinerario Malga Stramaiolo,attrazionenaturale
481455271,46.1005,11.235456,ALBERGO SAN GIORGIO,hotel
404737766,46.1536,11.2867,CAMPING PINETA,camping
96580687,46.175195,11.217998,DR. GIUSEPPE PALLANTE (CEMBRA),veterinario
227692436,46.09855,11.2357,POSTA 1899 - RISTORANTE CA' DEI BOCI,hotel
1303559979,46.161915,11.303384,BIBLIOTECA COMUNALE DI BEDOLLO,biblioteca
1291659163,46.13791,11.10788,CANTINA LA VIS E VALLE DI CEMBRA SCARL,prodottitipici
9201653,46.083337,11.199099,Mobili Cavalli,casalinghi
43320676,46.16167,11.193093,B&B AI GREGI,bedbreakfast
116828666,46.143374,11.245858,LA CAPANNINA,ristorante
239014474,46.157053,11.151503,MUNICIPIO DI GIOVO,servizimunicipali
257230769,46.1285,11.2374,HOTEL EDERA,hotel
123631727,46.207644,11.267777,MUNICIPIO DI VALDA,servizimunicipali
74772728,46.18812,11.259073,OFFICINA MECCANICA GIACOMOZZI SANDRO (SEGONZANO),automoto
24794532,46.134938,11.24938,SALONE MF STYLE DI FRANCESCA SVALDI (BASELGA DI PINE'),parrucchiera
1129454699,46.174989,11.2213,UNICREDITBANCA SPA,banca
1310989310,46.1969,11.2055,LAGO SANTO,ristorante
167520968,46.14554,11.21975,CASSA RURALE LAVIS - VALLE DI CEMBRA,banca
24761329,46.1273,11.233916,AUTOFFICINA MOTO PINE' (BASELGA DI PINE'),automoto
30076431,46.143758,11.218755,FAMIGLIA COOPERATIVA DI LASES - CONAD ,alimentari
86967971,46.088552,11.182483,Fruttivendolo Nadalini,alimentari
404737766,46.1529,11.2871,CAMPING VERDE BLU,camping
107456552,46.11375,11.213585,OFFICINA MECCANICA BRAGAGNA (FORNACE),automoto
1102610422,46.1576,11.1399,AGRITUR SIMONI,agriturismo
24756549,46.132019,11.243691,Famiglia Cooperativa Altopiano Piné,alimentari
37879270,46.173718,11.220696,Miacola Consuelo,parrucchiera
42178042,46.174387,11.218958,Callegari Fulvio ,abbigliamento
239014474,46.157053,11.151503,POLIAMBULATORIO GIOVO,servizisanitari
26402701,46.1252,11.243,FOLLADOR FRANCESCO,appartamentovacanze
167260543,46.146391,11.218918,MUNICIPIO DI LONA-LASES,servizimunicipali
893391489,46.089514,11.182515,Macelleria Bampi Marcello,alimentari
42084762,46.172908,11.219445,LISA (CEMBRA),parrucchiera
253309849,46.1805,11.2336,PAOLAZZI MONICA,appartamentovacanze
11043617883,46.1227,11.2597,GARNI' LAURA,hotel
605427556,46.1494,11.2688,Montechiara,bar
528355961,46.117209,11.207285,POLIAMBULATORIO FORNACE,servizisanitari
24755982,46.131704,11.2425965,ALBERGO VILLA PINE',hotel
9391236544,46.125508,11.223777,S.Mauro,bar
40699834,46.12019,11.261748,CANE' IN FIORE,ristorante
254172887,46.237969,11.325375,POLIAMBULATORIO PISCINE,servizisanitari
124334993,46.177009,11.223679,AZIENDA VINICOLA NICOLODI ALFIO,prodottitipici
261569633,46.1272,11.2466,ALBERGO LAGORAI,hotel
1923458359,46.126568,11.247,AFFITTACAMERE DA GIGI,affittocamere
1183435146,46.144964,11.192631,OFFICINA GILLI ARMANDO (ALBIANO),automoto
528355965,46.14323,11.194601,Panificio dolcesalato ,alimentari
25332483,46.154753,11.286777,ALBERGO PINETA ,bar
102219243,46.116822,11.206268,POSTA DI FORNACE,posta
26135722,46.13412,11.247143,Viliotti Italo & C. Snc,abbigliamento
255928035,46.091069,11.197525,Macelleria Dematte',alimentari
74772728,46.187106,11.258245,Lo scrigno di casa Largher,alimentari
97554101,46.175198,11.219712,Panificio Gaigher,alimentari
2468231577,46.157005,11.153063,POSTA DI GIOVO,posta
335905746,46.1558,11.2879,ALBERGO MIRAMONTI ,hotel
335905746,46.1558,11.2879,MIRAMONTI,ristorante
217865088,46.21682,11.326956,POLIAMBULATORIO MONTESOVER,servizisanitari
103459301,46.183901,11.240981,POSTA DI FAVER,posta
239116734,46.155827,11.155343,ALBERGO RISTORANTE DOSS PULES,hotel
1301468594,46.1826,11.3259,ALBERGO MONTECROCE,bar
1301455858,46.182146,11.325914,Fam.Coop.di BRUSAGO ,alimentari
946493040,46.1343,11.2486,HOTEL KRONE,hotel
832929590,46.133408,11.248017,Zanei Giuseppe & C. Snc,alimentari
24794532,46.135423,11.24967,Sirena,bar
23125342,46.164681,11.203242,OFFICINA MECCANICA CARPENTERIA NARDON ALDO & TULLIO (LISIGNANO),automoto
253070148,46.1875,11.257222,PEDRI ARMANDO,appartamentovacanze
259521111,46.1363,11.248,CASA DEI CHECHI,appartamentovacanze
1190841516,46.160754,11.186812,POLIAMBULATORIO LISIGNAGO,servizisanitari
440468204,46.12466,11.22152,Chiesa di San Mauro,luogoculto
227692436,46.098624,11.235974,Hotel Posta,bar
24794534,46.13,11.2344,AVI LUCIA,appartamentovacanze
42691880,46.20683,11.32401,MASO SVESERI,ristorante
253472677,46.221688,11.293805,STELLA ALPINA,ristorante
2468231580,46.157135,11.152254,Giova Delizie & Fantasie,alimentari
25348376,46.132722,11.242666,Antica Pieve di Santa Maria Assunta,luogoculto
216511654,46.2173,11.3267,Tirol - Natural Idill,bar
102219376,46.087847,11.184122,OFFICINA  CARROZZERIA FRONZA ANDREA E C. SNC (CIVEZZANO),automoto
2468231578,46.157183,11.15266,DR. GIUSEPPE FRASSANITO (GIOVO),dentista
4592489937,46.153601,11.119965,AZIENDA AGRICOLA DEVIGLI ELIO,prodottitipici
28163721,46.215521,11.327523,CARROZZERIA F.LLI TESSADRI (SOVER),automoto
9201653,46.083337,11.199099,ITALCINA BAZAR,negozio
257231918,46.1294,11.2333,AVI CLAUDIO,appartamentovacanze
76788043,46.2248,11.311956,CARROZZERIA OFFICINA NONES REMO (SOVER),automoto
7624789898,46.161211,11.303042,ANDREATTI PAOLA (BEDOLLO),negozio
188903261,46.15647,11.18505,Chiesa di San Leonardo,luogoculto
85405253,46.162608,11.131155,BEL BAIT,ristorante
24811049,46.12611,11.243452,Centro della Salute e Bellezza,palestra
93662266,46.086984,11.177954,DR. MICHELE DALLAPICCOLA (CIVEZZANO),veterinario
25305965,46.130062,11.237849,CARROZZERIA CONCI (BASELGA DI PINE'),automoto
26413958,46.1071,11.1842,B&B LE NOTE ,bedbreakfast
832929590,46.133,11.2477,FAM. GERMANO - SCHMOHL,appartamentovacanze
1154520450,46.1776,11.1674,FIOR DI BOSCO,ristorante
482014014,46.1125,11.234166,Hotel Scoiattolo,hotel
1266923529,46.1263,11.2472,TESSADRI GIORGIO,appartamentovacanze
440717488,46.1077,11.235,LEONARDELLI GIUSEPPE,appartamentovacanze
26135722,46.134068,11.247017,Anesi Alessandro,negozio
293233403,46.131546,11.246671,DR. VALTER FIRMANI E SIGHELE LAURA (BASELGA DI PINE'),dentista
26122960,46.1332662,11.248374,Centro Congressi Piné 1000,servizimunicipali
259519953,46.1327,11.2491,GIOVANNINI SILVANO,appartamentovacanze
927947054,46.133828,11.257107,Caffè piccolo paradiso,bar
1310989310,46.1969,11.2055,ALBERGO LAGO SANTO,hotel
122919173,46.161666,11.303384,MUNICIPIO DI BEDOLLO,servizimunicipali
253309849,46.18037,11.23473,B&B CA' ADA,bedbreakfast
97548127,46.174155,11.223123,Cartoleria NIC,cartoleria-libreria
4217585596,46.098557,11.235977,Carlin Maria Rosa in Sighel,abbigliamento
1301455857,46.183571,11.326566,DR. MICHELE CASAGRANDA (BEDOLLO),dentista
1154520456,46.175556,11.166667,Itinerario Roccolo del Sauch,attrazionenaturale
528355970,46.1438,11.1933,Nuovo Museo del Porfido,museo
103129729,46.144855,11.193287,MUNICIPIO DI ALBIANO,servizimunicipali
76371588,46.230833,11.300278,CONDOMINIO AL SOL,appartamentovacanze
26165192,46.1283,11.2366,AVI MARIO,appartamentovacanze
253472677,46.221688,11.293805,Stella Alpina,bar
7531390362,46.1247,11.2413,CASAGRANDA MAURO,appartamentovacanze
936139698,46.123,11.2522,GARNI' VILLA LORY,hotel
261827356,46.150167,11.270883,Autoservice di Tessadri Patrick & C. Snc,automoto
1310989310,46.196944,11.205278,Itinerario Lago Santo - Passo Potzmauer,attrazionenaturale
25348377,46.129887,11.244362,MUNICIPIO DI BASELGA DI PINE',servizimunicipali
302214495,46.125556,11.249722,FONTANA ANDREA,appartamentovacanze
227692436,46.0986,11.2358,Albergo Alla Corona - Museo del Turismo Trentino,museo
54175290,46.12445,11.1798,ALBERGO LAGO SANTA COLOMBA,hotel
42678714,46.160278,11.173333,RESIDENZA SOFIA,appartamentovacanze
87053305,46.175304,11.220627,INTERNET POINT DI CEMBRA,wifi
1154520450,46.1776,11.1674,WELLNESS HOTEL FIOR DI BOSCO,wellness
1033727643,46.143753,11.195088,SUSI (ALBIANO),parrucchiera
43284286,46.207778,11.265833,Itinerario lago di Valda - Castion,attrazionenaturale
1303559979,46.161915,11.303384,INTERNET POINT DI BEDOLLO,wifi
253576180,46.230556,11.300833,Sentiero dei Vecchi Mestieri,attrazionenaturale
261559819,46.123916,11.241694,HOTEL 2 PINI,hotel
253215463,46.186779,11.260677,Alpino,bar
40699834,46.12019,11.261748,CAMPING CANE' IN FIORE,camping
701884731,46.153711,11.278925,Lago delle Piazze,attrazionenaturale
261567292,46.125,11.2512,WELLNESS OLIMPIC HOTEL,wellness
9201653,46.083337,11.199099,TIGOTA',profumeria
331351541,46.134167,11.249167,Itinerario lago di Serraia - lago delle Piazze,attrazionenaturale
97545592,46.1704,11.2191,AGRITUR LE CAVADE,agriturismo
605427557,46.1408471,11.2568737,DALLAFIOR LUCIANO,appartamentovacanze
82591578,46.1086,11.2402,CA' DEI SONI,appartamentovacanze
259536186,46.140541287,11.256952286,AGRITUR AGRIGELATERIA LA CA' SUL LAGO,agriturismo
445468059,46.09015,11.181437,FAMIGLIA COOPERATIVA PERGINESE S.C.A.R.L.,alimentari
5044717173,46.18175,11.269611,Piramidi di Terra di Segonzano,attrazionenaturale
832929590,46.133536,11.248055,FARMACIA DR. MORELLI (BASELGA DI PINE'),farmacia
24764912,46.1306462,11.2582287,AGRITUR LA STROPAIA,agriturismo
937731680,46.221088,11.344754,BAITA MONTE PAT,ristorante
24845131,46.180833,11.263611,Dosso di Segonzano - da Segonzano,attrazionenaturale
390787295,46.09177,11.233722,Santuario Madonna di Piné,luogoculto
123631727,46.207811,11.267766,POSTA DI VALDA,posta
42678714,46.160023,11.173393,AGRITUR RESS ,agriturismo
24764911,46.129962,11.256434,DOTT. STEFANO TAMANINI (BASELGA DI PINE'),veterinario
236435025,46.142994,11.222609,Biotopo Lona Lases e buche del ghiaccio,attrazionenaturale
24772274,46.129352,11.236264,DOTT.SSA RITA GIOVANNA PALMISANO (BASELGA DI PINE'),veterinario
115340862,46.158731,11.141995,FANTASY (GIOVO),parrucchiera
120656008,46.125278,11.253889,Sorgente Ferruginosa,attrazionenaturale
234348171,46.2214,11.294362,POSTA DI GRUMES,posta
276211418,46.1305042,11.2441154,BORTOLOTTI IVO,appartamentovacanze
26122961,46.132036,11.246108,Ioriatti Arrigo & C. Snc ferramenta e colori,ferramenta
167985902,46.165,11.300278,Sentiero Bedollo - Brusago,attrazionenaturale
24794537,46.125278,11.253611,Santuario della Madonna di Piné - Riserva Naturalistica del Laghestel,luogoculto
43284160,46.237503,11.267382,Torbiera del Vedes,attrazionenaturale
279144866,46.08213,11.195839,BAR MOCHENA,bar
480617740,46.2075,11.2312,ALBERGO PONCIACH,hotel
102219048,46.088844,11.180852,ALBERGO POSTA,hotel
1197840520,46.1243,11.2738,AGRITUR SOGNO IN BAITA ,agriturismo
279144866,46.08213,11.195839,Tabacchi Facchinelli,tabacchino
221897245,46.139444,11.251111,ISCHIA NADIA,appartamentovacanze
76788009,46.207083,11.2803611,Santuario Madonna dell`Aiuto,luogoculto
660655777,46.179277,11.32375,Lago delle Buse,attrazionenaturale
1102969405,46.2305,11.2977,TONEZZER MATTEO,appartamentovacanze
261827791,46.1508,11.273,ALBERGO RITORANTE DUE LAGHI,hotel
490172953,46.140177,11.197288,SALONE RITOCCHI D'IMMAGINE DI FILIPPI LORENZA (ALBIANO),parrucchiera
126273701,46.187355,11.2584,HOTEL ALLE PIRAMIDI,hotel
397097588,46.12397,11.178523,Biotopo Le Grave,attrazionenaturale
97548138,46.1743,11.2235,AL CAMINETTO,ristorante
259536186,46.140278,11.256667,IORIATTI SERGIO,appartamentovacanze
259537211,46.1443,11.2552,La vecchia quercia,bar
1219539037,46.143058,11.118222,MASO FRANCH GOURMET E RELAIS,ristorante
23125342,46.169039,11.210061,Speedy Break,bar
82604931,46.0959,11.2345,HOTEL BELVEDERE WELLNESS & FAMILY,hotel
341940180,46.134444,11.261389,Giro di Ceramonte,attrazionenaturale
259537211,46.1443,11.2552,MASO LA VECCHIA QUERCIA,affittocamere
234348171,46.221322,11.294752,Bar Alpino,bar
42178042,46.175068,11.221839,CASSA RURALE LAVIS - VALLE DI CEMBRA,banca
42690882,46.214783,11.192523,Roccolo del Sauch,attrazionenaturale
1287407451,46.23814,11.325241,Bazzanella Renata,alimentari
23125363,46.229167,11.297778,Sentiero del laghetto Vedes,attrazionenaturale
74772728,46.187415,11.258403,FARMACIA DR. VILLACI (GIOVO),farmacia
1301468594,46.1826,11.3259,HOTEL MONTECROCE,hotel
259536186,46.140541287,11.256952286,AGRITUR LA CA' SUL LAGO,agriturismo
259094719,46.120964,11.498823,Rose di Bosco - Longo Danila,bedbreakfast
122079331,46.041443,11.059602,Maestri Sci Nicolussi,noleggiosci
5826803655,46.0327556154719,11.393358707428,Casa degli Spaventapasseri e Mulino Angeli,museo
3541312294,46.040888737897,11.4640617370605,Casa Andriollo - Soggetto Montagna Donna,museo
307493008,46.0689879491461,11.6071629524231,Museo Casa De Gasperi,museo
259094719,46.120964,11.498823,Rifugio Crucolo,ristorante
6900338736,46.0635687585263,11.231997013092,Amico Mio di Deflorian Morena snc,negozioanimali
4215205797,46.0532350913135,11.4573669433594,Bar Zita,bar
109103472,46.0616034260891,11.2374150753021,Alba,bar
5763751896,46.0512396071683,11.4636540412903,Bar Caffè Pavesi,bar
1249177535,46.0649831590313,11.2296366691589,Tenda Casa,negozio
35768062,46.0733199414033,11.2392282485962,Bar Brazzaniga,bar
1111843220,46.0679383947018,11.2229740619659,Calzature Volpato,abbigliamento
576305606,46.0616629826454,11.2369322776794,Gran Bazar,negozio
26771879,46.0688093029905,11.2389278411865,Mondo Cavallo,abbigliamento
1224360376,46.0593104498214,11.2407302856445,Nardon Loretta,alimentari
1111843220,46.0679383947018,11.2229740619659,Blu Top,negozio
11611087701,46.0631072094671,11.2341213226318,Admiral Club - Adria Gaming Bolzano,negozio
9780395603,46.0606505124509,11.2371683120728,Bar Sport,bar
3952806175,46.0608589637146,11.2405800819397,Jolly Profumi di Corradi Maria Teresa,profumeria
1072504536,46.0113818453386,11.3013803958893,Cantinota,pizzeria
413711724,46.0689730619886,11.6074848175049,Negozio Alimentari,alimentari
67493498,46.1335752604075,11.5986442565918,Malga Sorgazza,ristorante
5731536342,46.0556027737462,11.4608860015869,Sala Galvan,museo
11665329954,46.0631444313084,11.2426722049713,Happy Zoo,negozioanimali
25454428,46.0856292796992,11.215238571167,Boeriu Nineta - Hotel Madrano,ristorante
6516621036,46.0555283198697,11.5354299545288,Negozio Alimentari,alimentari
26789069,46.0604643945862,11.2408590316772,Al Volt,ristorante
227901881,46.0684371216425,11.2251305580139,Agip Cafè,bar
1111843220,46.0679383947018,11.2229740619659,Gruppo Zannier Italia,negozio
11266432150,46.0194138092642,11.3570415973663,Bar Campiello,bar
2784215579,46.0532499827152,11.4563798904419,Museo Spazio Klien,museo
421689951,46.0559303696104,11.473503112793,Fiore di Cardo,ristorante
10018426171,46.0492738358757,11.2353658676147,Gretter,bar
475825791,46.0502716224721,11.2230491638184,Stoffella Alessandro,alimentari
6681761404,46.0059048374363,11.6572880744934,Alte Stube,ristorante
66183772,45.9958,11.2703,Monte Cimone,ristorante
3952806164,46.0613875330339,11.2416368722916,Berlanda Bruno,alimentari
24790566,46.0763268288829,11.207857131958,AGIP di Banali Marco e C. Sas,stazioneservizio
7687845038,46.0613800884307,11.2367498874664,Italcina Trova Tutto,abbigliamento
1111843220,46.0679383947018,11.2229740619659,Italcom,negozio
3951298222,46.0593886210348,11.2408268451691,Music ad Hoc - Borgogno Mauro,negozio
7203111342,46.0398312017746,11.4649200439453,Alpina,pizzeria
1111843220,46.0679383947018,11.2229740619659,Stroili Oro,gioielleria
6388762,46.0021488614333,11.2545919418335,Biba's,pizzeria
5763437491,46.0125964008308,11.2987947463989,Impero Caffè,bar
1202580626,46.0278021660037,11.2453544139862,Ca' Rossa,ristorante
2374286309,46.0590647681448,11.2388527393341,Ferramenta Frisanco,ferramenta
4043982328,46.0297165592554,11.2275552749634,Biasi Sara,alimentari
4033612969,46.0159046253001,11.2340569496155,Happy Days,pizzeria
5915990621,46.0174096529156,11.6353583335876,Farmacia Trintinaglia,farmacia
799244294,46.0110763394521,11.3028287887573,Keramos,souvenir
1111843220,46.0679383947018,11.2229740619659,L'erbolario,profumeria
445790987,46.064469512512,11.6322791576385,Alpina,ristorante
5763498916,46.0103759049526,11.3011765480042,L'Angolo dei Risotti,ristorante
391905243,46.0615140911341,11.2429296970367,Boutique della frutta,alimentari
1111843220,46.0679383947018,11.2229740619659,Bata Superstore,abbigliamento
106263889,46.0654968007714,11.2379944324493,Lavasecco Al Cristallo di Moro Alviana,abbigliamento
406813115,46.0806284770847,11.2630677223206,Alpina,bar
481282430,46.035228449668,11.6472244262695,Al Cacciatore,pizzeria
1111843220,46.0679383947018,11.2229740619659,Bottega Verde,profumeria
799244269,46.0115830312203,11.301863193512,Caminetto,bar
1897887,46.0121791332399,11.2971639633179,Piscina comunale,piscina
6900338738,46.0670823603436,11.2261068820953,Mobili Lorenzi,negozio
106278934,46.0696280931225,11.2230491638184,Il Germoglio,alimentari
299963432,46.0676480888854,11.6337060928345,Camping Casteltesino,pizzeria
7687845032,46.0626903231292,11.2346041202545,Biasi Claudia,negozio
201347862,46.0643131843619,11.2299156188965,EP Leonardelli Shop Center,elettronica
229110821,46.1140627241198,11.6182136535645,Camping Valmalene,ristorante
5748664772,46.0122909016533,11.2997817993164,Bar Lino,bar
153384657,46.0723076849962,11.2197875976563,Bottega della musica,negozio
1897887,46.012119523327,11.2965631484985,Bottega Artigiana di Capozzi Lorenzo,prodottitipici
6732654698,46.0538605267274,11.4575600624084,Italia,bar
3952792069,46.0605090629309,11.2392926216125,Al Cavalletto,ristorante
1210710268,46.068377572394,11.2253665924072,AGIP Stazione di Servizio,stazioneservizio
39915038,46.0619012082281,11.2420606613159,Baratto Confezioni,abbigliamento
8967695841,45.9727331399678,11.6808271408081,Kiss Bar,bar
1111843220,46.0679383947018,11.2229740619659,Fuori Orario,bar
108738972,46.0904956970005,11.5986442565918,Camping Lagorai,ristorante
959987510,46.0707148321749,11.2181997299194,Bauexpert,negozio
23317343,46.0679607258553,11.2294864654541,Impa,negozio
120227308,46.0414100510722,11.2357950210571,Bel Sit Mister Gulliver Pub,birreria
5858710857,45.9777586251191,11.6810846328735,Cafè di'Enote,bar
4941869749,46.0699556057744,11.221182346344,Io Bimbo,abbigliamento
1225088527,46.0670228096335,11.2371897697449,Pizzo Paolo,farmacia
1274439611,46.0628243226525,11.2402153015137,A.B. Intimo di Alessi & Brunelli snc,abbigliamento
3952806161,46.0604718393128,11.2398934364319,Oss Pinter Francesca,alimentari
6609204580,46.0168508603145,11.6344034671783,Caffè Italia,bar
3952815305,46.0616480935123,11.2422323226929,Fotostudio Scarpa,negozio
319933082,46.0575981002425,11.6295433044434,Cafè Lumiere,bar
1177909520,46.0622287667261,11.2388849258423,Salone Fantasia di Roat Simonetta,parrucchiera
276081304,46.0515672289152,11.2352800369263,Prix,alimentari
24695116,46.0634198721546,11.2412667274475,Caffè Bar Mozart,bar
203794141,46.0225055808545,11.3115406036377,Cacciatore,ristorante
72667651,46.0059048374363,11.2918639183044,Al Brenta,ristorante
6723038356,46.0383640230709,11.2376511096954,21.1 Beach,bar
106277552,46.065102264788,11.2290143966675,Pneuspergine,automoto
28922935,46.070625511964,11.2378764152527,Planchel Erick,negozio
92289735,46.115847694466,11.6611289978027,Funivie Lagorai,impiantosci
4294950124,46.0801447444551,11.5535831451416,Famiglia Cooperativa,alimentari
26789069,46.0605165076515,11.2413096427917,Sittoni Angela,farmacia
85540839,46.0544934005909,11.2359344959259,Cenca srl (vicino formica),abbigliamento
1299719648,46.0583277165558,11.2371468544006,CAD bellezza e igiene,profumeria
5732447447,46.0626307676811,11.2350869178772,Salone da Franco,parrucchiera
553752403,46.0605872324473,11.2392604351044,Bar Anderle Cristiana,bar
1224393690,46.0610078569925,11.2388956546783,Delugan Nadia,negozio
7687845025,46.0600400435086,11.2373614311218,Petrol Pergine,stazioneservizio
108153867,46.0859566973921,11.21433198452,Belvedere,pizzeria
1162999085,46.0621245437785,11.2390995025635,Museo della Scuola,museo
402186211,46.0394513775227,11.2348616123199,Ristorante Albergo San Cristoforo,ristorante
445781695,46.0661593171176,11.634349822998,Bellavista,ristorante
6681769764,46.0042057370213,11.6602492332458,Osteria Serafini,bar
11663893936,46.0637995316089,11.2419533729553,Fioreria Lena,negozio
3951298199,46.0599283716303,11.2412667274475,Bono,bar
456556639,46.0667250551193,11.2477684020996,Piscina comunale - Bar A Onda,piscina
247106817,46.0799884606992,11.6398966312408,Kapriol,ristorante
1079845877,46.0673205625415,11.2376189231873,Pi Bar,bar
1081264004,46.0153681699111,11.6360878944397,Bar Alpino,bar
3952792078,46.0609334104038,11.2386918067932,Foto Ottica Fanton,ottico
458708907,46.0571513916192,11.3129138946533,Noleggio Sci Panarotta 2002,noleggiosci
1249248157,46.0641642999978,11.2303018569946,Officina autorizzata Peugeot Nicolini Claudio,automoto
456830729,46.0780534822903,11.2779808044434,Osteria Storica Morelli,ristorante
5759889190,46.0107708318781,11.298269033432,Poli,alimentari
